{
	"type": "FeatureCollection",
	"features": [
		{
			"type": "Feature",
			"geometry": {
				"type": "Point",
				"coordinates": [
					31.3208,
					40.6058
				]
			},
			"properties": {
				"Network": "TU",
				"Code": "ABT",
				"Height": 1794.0,
				"Province": "Bolu",
				"District": "Mudurnu"
			}
		},
		{
			"type": "Feature",
			"geometry": {
				"type": "Point",
				"coordinates": [
					29.6052,
					36.2326
				]
			},
			"properties": {
				"Network": "TU",
				"Code": "AKAS",
				"Height": 1165.0,
				"Province": "Antalya",
				"District": "Kaş"
			}
		},
		{
			"type": "Feature",
			"geometry": {
				"type": "Point",
				"coordinates": [
					37.0135,
					40.7844
				]
			},
			"properties": {
				"Network": "TU",
				"Code": "AKKT",
				"Height": 1575.0,
				"Province": "Ordu",
				"District": "Akkuş"
			}
		},
		{
			"type": "Feature",
			"geometry": {
				"type": "Point",
				"coordinates": [
					38.2949,
					37.4696
				]
			},
			"properties": {
				"Network": "TU",
				"Code": "ATAB",
				"Height": 551.0,
				"Province": "Şanlıurfa",
				"District": "Bozova"
			}
		},
		{
			"type": "Feature",
			"geometry": {
				"type": "Point",
				"coordinates": [
					34.8523,
					38.7784
				]
			},
			"properties": {
				"Network": "TU",
				"Code": "AVNT",
				"Height": 1541.0,
				"Province": "Nevşehir",
				"District": "Avanos"
			}
		},
		{
			"type": "Feature",
			"geometry": {
				"type": "Point",
				"coordinates": [
					27.8792,
					37.6608
				]
			},
			"properties": {
				"Network": "TU",
				"Code": "AYDN",
				"Height": 716.0,
				"Province": "Aydın",
				"District": "Çine"
			}
		},
		{
			"type": "Feature",
			"geometry": {
				"type": "Point",
				"coordinates": [
					33.3858,
					41.5341
				]
			},
			"properties": {
				"Network": "TU",
				"Code": "BALT",
				"Height": 1746.0,
				"Province": "Kastamonu",
				"District": "Daday"
			}
		},
		{
			"type": "Feature",
			"geometry": {
				"type": "Point",
				"coordinates": [
					27.4435,
					37.065
				]
			},
			"properties": {
				"Network": "TU",
				"Code": "BDRM",
				"Height": 350.0,
				"Province": "Muğla",
				"District": "Bodrum"
			}
		},
		{
			"type": "Feature",
			"geometry": {
				"type": "Point",
				"coordinates": [
					34.9036,
					41.4206
				]
			},
			"properties": {
				"Network": "TU",
				"Code": "BOYT",
				"Height": 1170.0,
				"Province": "Sinop",
				"District": "Boyabat"
			}
		},
		{
			"type": "Feature",
			"geometry": {
				"type": "Point",
				"coordinates": [
					34.1083,
					37.9505
				]
			},
			"properties": {
				"Network": "TU",
				"Code": "BSTP",
				"Height": 1318.0,
				"Province": "Niğde",
				"District": "Bor"
			}
		},
		{
			"type": "Feature",
			"geometry": {
				"type": "Point",
				"coordinates": [
					34.3719,
					39.6236
				]
			},
			"properties": {
				"Network": "TU",
				"Code": "CDAG",
				"Height": 1136.0,
				"Province": "Kırşehir",
				"District": "Çiçekdağı"
			}
		},
		{
			"type": "Feature",
			"geometry": {
				"type": "Point",
				"coordinates": [
					36.2556,
					36.5197
				]
			},
			"properties": {
				"Network": "TU",
				"Code": "COBT",
				"Height": 1710.0,
				"Province": "Hatay",
				"District": "İskenderun"
			}
		},
		{
			"type": "Feature",
			"geometry": {
				"type": "Point",
				"coordinates": [
					34.7896,
					40.6231
				]
			},
			"properties": {
				"Network": "TU",
				"Code": "CTKT",
				"Height": 1650.0,
				"Province": "Çorum",
				"District": "Merkez"
			}
		},
		{
			"type": "Feature",
			"geometry": {
				"type": "Point",
				"coordinates": [
					29.0464,
					37.6897
				]
			},
			"properties": {
				"Network": "TU",
				"Code": "DNZL",
				"Height": 1716.0,
				"Province": "Denizli",
				"District": "Pamukkale"
			}
		},
		{
			"type": "Feature",
			"geometry": {
				"type": "Point",
				"coordinates": [
					32.0075,
					41.1594
				]
			},
			"properties": {
				"Network": "TU",
				"Code": "DVR",
				"Height": 960.0,
				"Province": "Zonguldak",
				"District": "Devrek"
			}
		},
		{
			"type": "Feature",
			"geometry": {
				"type": "Point",
				"coordinates": [
					33.4266,
					40.4893
				]
			},
			"properties": {
				"Network": "TU",
				"Code": "ELDT",
				"Height": 1584.0,
				"Province": "Çankırı",
				"District": "Şabanözü"
			}
		},
		{
			"type": "Feature",
			"geometry": {
				"type": "Point",
				"coordinates": [
					38.9849,
					38.497
				]
			},
			"properties": {
				"Network": "TU",
				"Code": "ELZG",
				"Height": 1640.0,
				"Province": "Elazığ",
				"District": "Merkez"
			}
		},
		{
			"type": "Feature",
			"geometry": {
				"type": "Point",
				"coordinates": [
					35.7883,
					38.8117
				]
			},
			"properties": {
				"Network": "TU",
				"Code": "ERCT",
				"Height": 1905.0,
				"Province": "Kayseri",
				"District": "Melikgazi"
			}
		},
		{
			"type": "Feature",
			"geometry": {
				"type": "Point",
				"coordinates": [
					35.5142,
					38.6031
				]
			},
			"properties": {
				"Network": "TU",
				"Code": "ERCT",
				"Height": 1915.0,
				"Province": "Kayseri",
				"District": "Melikgazi"
			}
		},
		{
			"type": "Feature",
			"geometry": {
				"type": "Point",
				"coordinates": [
					32.9113,
					36.6414
				]
			},
			"properties": {
				"Network": "TU",
				"Code": "ERMK",
				"Height": 1855.0,
				"Province": "Karaman",
				"District": "Ermenek"
			}
		},
		{
			"type": "Feature",
			"geometry": {
				"type": "Point",
				"coordinates": [
					39.1183,
					39.9167
				]
			},
			"properties": {
				"Network": "TU",
				"Code": "ERZC",
				"Height": 2810.0,
				"Province": "Erzincan",
				"District": "Refahiye"
			}
		},
		{
			"type": "Feature",
			"geometry": {
				"type": "Point",
				"coordinates": [
					41.3658,
					39.9053
				]
			},
			"properties": {
				"Network": "TU",
				"Code": "ERZM",
				"Height": 2380.0,
				"Province": "Erzurum",
				"District": "Palandöken"
			}
		},
		{
			"type": "Feature",
			"geometry": {
				"type": "Point",
				"coordinates": [
					29.4815,
					39.0874
				]
			},
			"properties": {
				"Network": "TU",
				"Code": "GDZ",
				"Height": 1324.0,
				"Province": "Kütahya",
				"District": "Gediz"
			}
		},
		{
			"type": "Feature",
			"geometry": {
				"type": "Point",
				"coordinates": [
					29.5591,
					37.2365
				]
			},
			"properties": {
				"Network": "TU",
				"Code": "GOLH",
				"Height": 1090.0,
				"Province": "Burdur",
				"District": "Gölhisar"
			}
		},
		{
			"type": "Feature",
			"geometry": {
				"type": "Point",
				"coordinates": [
					38.2681,
					40.9244
				]
			},
			"properties": {
				"Network": "TU",
				"Code": "GRSN",
				"Height": 536.0,
				"Province": "Giresun",
				"District": "Bulancak"
			}
		},
		{
			"type": "Feature",
			"geometry": {
				"type": "Point",
				"coordinates": [
					30.7264,
					40.3533
				]
			},
			"properties": {
				"Network": "TU",
				"Code": "GYN",
				"Height": 1279.0,
				"Province": "Bolu",
				"District": "Göynük"
			}
		},
		{
			"type": "Feature",
			"geometry": {
				"type": "Point",
				"coordinates": [
					37.1375,
					37.1356
				]
			},
			"properties": {
				"Network": "TU",
				"Code": "GZTT",
				"Height": 1496.0,
				"Province": "Gaziantep",
				"District": "Şehitkamil"
			}
		},
		{
			"type": "Feature",
			"geometry": {
				"type": "Point",
				"coordinates": [
					37.3458,
					37.1278
				]
			},
			"properties": {
				"Network": "TU",
				"Code": "GZZT",
				"Height": 1209.0,
				"Province": "Gaziantep",
				"District": "Şehitkamil"
			}
		},
		{
			"type": "Feature",
			"geometry": {
				"type": "Point",
				"coordinates": [
					37.5615,
					37.3553
				]
			},
			"properties": {
				"Network": "TU",
				"Code": "GZT",
				"Height": 1021.0,
				"Province": "Gaziantep",
				"District": "Yavuzeli"
			}
		},
		{
			"type": "Feature",
			"geometry": {
				"type": "Point",
				"coordinates": [
					43.7071,
					37.5579
				]
			},
			"properties": {
				"Network": "TU",
				"Code": "HAKT",
				"Height": 2153.0,
				"Province": "Hakkari",
				"District": "Merkez"
			}
		},
		{
			"type": "Feature",
			"geometry": {
				"type": "Point",
				"coordinates": [
					30.8992,
					40.8231
				]
			},
			"properties": {
				"Network": "TU",
				"Code": "HENT",
				"Height": 583.0,
				"Province": "Sakarya",
				"District": "Hendek"
			}
		},
		{
			"type": "Feature",
			"geometry": {
				"type": "Point",
				"coordinates": [
					34.3056,
					41.1697
				]
			},
			"properties": {
				"Network": "TU",
				"Code": "KART",
				"Height": 1946.0,
				"Province": "Çorum",
				"District": "Kargı"
			}
		},
		{
			"type": "Feature",
			"geometry": {
				"type": "Point",
				"coordinates": [
					27.2667,
					38.4028
				]
			},
			"properties": {
				"Network": "TU",
				"Code": "KDAG",
				"Height": 997.0,
				"Province": "İzmir",
				"District": "Bornova"
			}
		},
		{
			"type": "Feature",
			"geometry": {
				"type": "Point",
				"coordinates": [
					32.1143,
					38.5209
				]
			},
			"properties": {
				"Network": "TU",
				"Code": "KDHN",
				"Height": 1118.0,
				"Province": "Konya",
				"District": "Kadınhanı"
			}
		},
		{
			"type": "Feature",
			"geometry": {
				"type": "Point",
				"coordinates": [
					32.8792,
					41.0814
				]
			},
			"properties": {
				"Network": "TU",
				"Code": "KRCT",
				"Height": 1449.0,
				"Province": "Karabük",
				"District": "Ovacık"
			}
		},
		{
			"type": "Feature",
			"geometry": {
				"type": "Point",
				"coordinates": [
					28.5579,
					38.4908
				]
			},
			"properties": {
				"Network": "TU",
				"Code": "MANT",
				"Height": 945.0,
				"Province": "Manisa",
				"District": "Kula"
			}
		},
		{
			"type": "Feature",
			"geometry": {
				"type": "Point",
				"coordinates": [
					40.7776,
					37.3132
				]
			},
			"properties": {
				"Network": "TU",
				"Code": "MARD",
				"Height": 1290.0,
				"Province": "Mardin",
				"District": "Artuklu"
			}
		},
		{
			"type": "Feature",
			"geometry": {
				"type": "Point",
				"coordinates": [
					38.3617,
					38.3542
				]
			},
			"properties": {
				"Network": "TU",
				"Code": "MLTT",
				"Height": 1170.0,
				"Province": "Malatya",
				"District": "Battalgazi"
			}
		},
		{
			"type": "Feature",
			"geometry": {
				"type": "Point",
				"coordinates": [
					33.4547,
					40.5036
				]
			},
			"properties": {
				"Network": "TU",
				"Code": "MRFT",
				"Height": 1500.0,
				"Province": "Çankırı",
				"District": "Eldivan"
			}
		},
		{
			"type": "Feature",
			"geometry": {
				"type": "Point",
				"coordinates": [
					28.4675,
					37.2075
				]
			},
			"properties": {
				"Network": "TU",
				"Code": "MUGL",
				"Height": 1465.0,
				"Province": "Muğla",
				"District": "Menteşe"
			}
		},
		{
			"type": "Feature",
			"geometry": {
				"type": "Point",
				"coordinates": [
					31.3092,
					40.2094
				]
			},
			"properties": {
				"Network": "TU",
				"Code": "NAL",
				"Height": 1390.0,
				"Province": "Ankara",
				"District": "Nallıhan"
			}
		},
		{
			"type": "Feature",
			"geometry": {
				"type": "Point",
				"coordinates": [
					37.7358,
					41.0792
				]
			},
			"properties": {
				"Network": "TU",
				"Code": "PERT",
				"Height": 480.0,
				"Province": "Ordu",
				"District": "Perşembe"
			}
		},
		{
			"type": "Feature",
			"geometry": {
				"type": "Point",
				"coordinates": [
					30.8538,
					39.5236
				]
			},
			"properties": {
				"Network": "TU",
				"Code": "SEYT",
				"Height": 1172.0,
				"Province": "Eskişehir",
				"District": "Seyitgazi"
			}
		},
		{
			"type": "Feature",
			"geometry": {
				"type": "Point",
				"coordinates": [
					32.0561,
					40.5733
				]
			},
			"properties": {
				"Network": "TU",
				"Code": "SGKT",
				"Height": 1890.0,
				"Province": "Bolu",
				"District": "Dörtdivan"
			}
		},
		{
			"type": "Feature",
			"geometry": {
				"type": "Point",
				"coordinates": [
					36.9528,
					39.7722
				]
			},
			"properties": {
				"Network": "TU",
				"Code": "SVST",
				"Height": 1665.0,
				"Province": "Sivas",
				"District": "Merkez"
			}
		},
		{
			"type": "Feature",
			"geometry": {
				"type": "Point",
				"coordinates": [
					27.5344,
					40.9903
				]
			},
			"properties": {
				"Network": "TU",
				"Code": "TDAG",
				"Height": 148.0,
				"Province": "Tekirdağ",
				"District": "Süleymanpaşa"
			}
		},
		{
			"type": "Feature",
			"geometry": {
				"type": "Point",
				"coordinates": [
					27.1777,
					40.6876
				]
			},
			"properties": {
				"Network": "TU",
				"Code": "SART",
				"Height": 680.0,
				"Province": "Tekirdağ",
				"District": "Şarköy"
			}
		},
		{
			"type": "Feature",
			"geometry": {
				"type": "Point",
				"coordinates": [
					30.32,
					38.04
				]
			},
			"properties": {
				"Network": "TU",
				"Code": "TKTP",
				"Height": 1788.0,
				"Province": "Isparta",
				"District": "Keçiborlu"
			}
		},
		{
			"type": "Feature",
			"geometry": {
				"type": "Point",
				"coordinates": [
					36.1778,
					40.3497
				]
			},
			"properties": {
				"Network": "TU",
				"Code": "TRHT",
				"Height": 1190.0,
				"Province": "Tokat",
				"District": "Turhal"
			}
		},
		{
			"type": "Feature",
			"geometry": {
				"type": "Point",
				"coordinates": [
					29.1357,
					40.1416
				]
			},
			"properties": {
				"Network": "TU",
				"Code": "ULDT",
				"Height": 1720.0,
				"Province": "Bursa",
				"District": "Yıldırım"
			}
		},
		{
			"type": "Feature",
			"geometry": {
				"type": "Point",
				"coordinates": [
					26.5956,
					38.3602
				]
			},
			"properties": {
				"Network": "TU",
				"Code": "URLA",
				"Height": 495.0,
				"Province": "İzmir",
				"District": "Urla"
			}
		},
		{
			"type": "Feature",
			"geometry": {
				"type": "Point",
				"coordinates": [
					43.4044,
					38.5235
				]
			},
			"properties": {
				"Network": "TU",
				"Code": "TVAN",
				"Height": 1970.0,
				"Province": "Van",
				"District": "Tuşba"
			}
		},
		{
			"type": "Feature",
			"geometry": {
				"type": "Point",
				"coordinates": [
					27.1575,
					38.5531
				]
			},
			"properties": {
				"Network": "TU",
				"Code": "YAMN",
				"Height": 997.0,
				"Province": "İzmir",
				"District": "Menemen"
			}
		},
		{
			"type": "Feature",
			"geometry": {
				"type": "Point",
				"coordinates": [
					41.27,
					37.8911
				]
			},
			"properties": {
				"Network": "TU",
				"Code": "BEST",
				"Height": 959.0,
				"Province": "Batman",
				"District": "Beşiri"
			}
		},
		{
			"type": "Feature",
			"geometry": {
				"type": "Point",
				"coordinates": [
					26.0528,
					39.8417
				]
			},
			"properties": {
				"Network": "TU",
				"Code": "BOZC",
				"Height": 202.0,
				"Province": "Çanakkale",
				"District": "Bozcaada"
			}
		},
		{
			"type": "Feature",
			"geometry": {
				"type": "Point",
				"coordinates": [
					26.69,
					39.3077
				]
			},
			"properties": {
				"Network": "TU",
				"Code": "AYVA",
				"Height": 100.0,
				"Province": "Balıkesir",
				"District": "Ayvalık"
			}
		},
		{
			"type": "Feature",
			"geometry": {
				"type": "Point",
				"coordinates": [
					28.0311,
					39.7617
				]
			},
			"properties": {
				"Network": "TU",
				"Code": "BTOK",
				"Height": 407.0,
				"Province": "Balıkesir",
				"District": "Altıeylül"
			}
		},
		{
			"type": "Feature",
			"geometry": {
				"type": "Point",
				"coordinates": [
					39.2556,
					40.1486
				]
			},
			"properties": {
				"Network": "TU",
				"Code": "KELT",
				"Height": 1912.0,
				"Province": "Gümüşhane",
				"District": "Şiran"
			}
		},
		{
			"type": "Feature",
			"geometry": {
				"type": "Point",
				"coordinates": [
					36.8734,
					37.6307
				]
			},
			"properties": {
				"Network": "TU",
				"Code": "KAHT",
				"Height": 1830.0,
				"Province": "Kahramanmaraş",
				"District": "Onikişubat"
			}
		},
		{
			"type": "Feature",
			"geometry": {
				"type": "Point",
				"coordinates": [
					34.145,
					36.587
				]
			},
			"properties": {
				"Network": "TU",
				"Code": "MEST",
				"Height": 855.0,
				"Province": "Mersin",
				"District": "Erdemli"
			}
		},
		{
			"type": "Feature",
			"geometry": {
				"type": "Point",
				"coordinates": [
					41.1499,
					38.9521
				]
			},
			"properties": {
				"Network": "TU",
				"Code": "BNGL",
				"Height": 1968.0,
				"Province": "Bingöl",
				"District": "Solhan"
			}
		},
		{
			"type": "Feature",
			"geometry": {
				"type": "Point",
				"coordinates": [
					43.3742,
					40.4147
				]
			},
			"properties": {
				"Network": "TU",
				"Code": "DIGO",
				"Height": 2278.0,
				"Province": "Kars",
				"District": "Digor"
			}
		},
		{
			"type": "Feature",
			"geometry": {
				"type": "Point",
				"coordinates": [
					41.9283,
					41.1849
				]
			},
			"properties": {
				"Network": "TU",
				"Code": "ARTV",
				"Height": 2034.0,
				"Province": "Artvin",
				"District": "Merkez"
			}
		},
		{
			"type": "Feature",
			"geometry": {
				"type": "Point",
				"coordinates": [
					39.7686,
					40.9432
				]
			},
			"properties": {
				"Network": "TU",
				"Code": "MACK",
				"Height": 611.0,
				"Province": "Trabzon",
				"District": "Ortahisar"
			}
		},
		{
			"type": "Feature",
			"geometry": {
				"type": "Point",
				"coordinates": [
					30.4534,
					39.8801
				]
			},
			"properties": {
				"Network": "TU",
				"Code": "BORA",
				"Height": 960.0,
				"Province": "Eskişehir",
				"District": "Tepebaşı"
			}
		},
		{
			"type": "Feature",
			"geometry": {
				"type": "Point",
				"coordinates": [
					28.4307,
					41.1469
				]
			},
			"properties": {
				"Network": "TU",
				"Code": "ELBA",
				"Height": 331.0,
				"Province": "İstanbul",
				"District": "Çatalca"
			}
		},
		{
			"type": "Feature",
			"geometry": {
				"type": "Point",
				"coordinates": [
					27.8138,
					38.8788
				]
			},
			"properties": {
				"Network": "TU",
				"Code": "AKHS",
				"Height": 370.0,
				"Province": "Manisa",
				"District": "Akhisar"
			}
		},
		{
			"type": "Feature",
			"geometry": {
				"type": "Point",
				"coordinates": [
					43.6889,
					39.5436
				]
			},
			"properties": {
				"Network": "TU",
				"Code": "DYDN",
				"Height": 2010.0,
				"Province": "Ağrı",
				"District": "Diyadin"
			}
		},
		{
			"type": "Feature",
			"geometry": {
				"type": "Point",
				"coordinates": [
					42.8137,
					39.4019
				]
			},
			"properties": {
				"Network": "TU",
				"Code": "TUTA",
				"Height": 2154.0,
				"Province": "Ağrı",
				"District": "Tutak"
			}
		},
		{
			"type": "Feature",
			"geometry": {
				"type": "Point",
				"coordinates": [
					41.9048,
					40.0451
				]
			},
			"properties": {
				"Network": "TU",
				"Code": "HOMI",
				"Height": 2166.0,
				"Province": "Erzurum",
				"District": "Köprüköy"
			}
		},
		{
			"type": "Feature",
			"geometry": {
				"type": "Point",
				"coordinates": [
					40.4972,
					40.0179
				]
			},
			"properties": {
				"Network": "TU",
				"Code": "KOPT",
				"Height": 2489.0,
				"Province": "Erzurum",
				"District": "Aşkale"
			}
		},
		{
			"type": "Feature",
			"geometry": {
				"type": "Point",
				"coordinates": [
					36.3453,
					37.58
				]
			},
			"properties": {
				"Network": "TU",
				"Code": "ANDN",
				"Height": 1142.0,
				"Province": "Kahramanmaraş",
				"District": "Andırın"
			}
		},
		{
			"type": "Feature",
			"geometry": {
				"type": "Point",
				"coordinates": [
					38.4932,
					39.2688
				]
			},
			"properties": {
				"Network": "TU",
				"Code": "KEMA",
				"Height": 1026.0,
				"Province": "Erzincan",
				"District": "Kemaliye"
			}
		},
		{
			"type": "Feature",
			"geometry": {
				"type": "Point",
				"coordinates": [
					36.4027,
					38.6769
				]
			},
			"properties": {
				"Network": "TU",
				"Code": "PINB",
				"Height": 2288.0,
				"Province": "Kayseri",
				"District": "Pınarbaşı"
			}
		},
		{
			"type": "Feature",
			"geometry": {
				"type": "Point",
				"coordinates": [
					42.2672,
					38.58
				]
			},
			"properties": {
				"Network": "TU",
				"Code": "TATV",
				"Height": 1831.0,
				"Province": "Bitlis",
				"District": "Tatvan"
			}
		},
		{
			"type": "Feature",
			"geometry": {
				"type": "Point",
				"coordinates": [
					36.107,
					36.0343
				]
			},
			"properties": {
				"Network": "TU",
				"Code": "YAYL",
				"Height": 1225.0,
				"Province": "Hatay",
				"District": "Yayladağı"
			}
		},
		{
			"type": "Feature",
			"geometry": {
				"type": "Point",
				"coordinates": [
					34.7765,
					37.2837
				]
			},
			"properties": {
				"Network": "TU",
				"Code": "GULE",
				"Height": 1625.0,
				"Province": "Mersin",
				"District": "Tarsus"
			}
		},
		{
			"type": "Feature",
			"geometry": {
				"type": "Point",
				"coordinates": [
					40.1208,
					37.9234
				]
			},
			"properties": {
				"Network": "TU",
				"Code": "DIYA",
				"Height": 838.0,
				"Province": "Diyarbakır",
				"District": "Kayapınar"
			}
		},
		{
			"type": "Feature",
			"geometry": {
				"type": "Point",
				"coordinates": [
					35.6324,
					36.8259
				]
			},
			"properties": {
				"Network": "TU",
				"Code": "YURE",
				"Height": 491.0,
				"Province": "Adana",
				"District": "Yüreğir"
			}
		},
		{
			"type": "Feature",
			"geometry": {
				"type": "Point",
				"coordinates": [
					37.9224,
					38.2956
				]
			},
			"properties": {
				"Network": "TU",
				"Code": "AKCD",
				"Height": 1376.0,
				"Province": "Malatya",
				"District": "Akçadağ"
			}
		},
		{
			"type": "Feature",
			"geometry": {
				"type": "Point",
				"coordinates": [
					27.6195,
					39.7403
				]
			},
			"properties": {
				"Network": "TU",
				"Code": "BALY",
				"Height": 645.0,
				"Province": "Balıkesir",
				"District": "Balya"
			}
		},
		{
			"type": "Feature",
			"geometry": {
				"type": "Point",
				"coordinates": [
					30.9502,
					38.7183
				]
			},
			"properties": {
				"Network": "TU",
				"Code": "BOLV",
				"Height": 1303.0,
				"Province": "Afyonkarahisar",
				"District": "Bolvadin"
			}
		},
		{
			"type": "Feature",
			"geometry": {
				"type": "Point",
				"coordinates": [
					28.4742,
					39.6011
				]
			},
			"properties": {
				"Network": "TU",
				"Code": "DURS",
				"Height": 960.0,
				"Province": "Balıkesir",
				"District": "Dursunbey"
			}
		},
		{
			"type": "Feature",
			"geometry": {
				"type": "Point",
				"coordinates": [
					29.4914,
					38.3704
				]
			},
			"properties": {
				"Network": "TU",
				"Code": "KHAL",
				"Height": 1130.0,
				"Province": "Uşak",
				"District": "Karahallı"
			}
		},
		{
			"type": "Feature",
			"geometry": {
				"type": "Point",
				"coordinates": [
					28.7162,
					39.0428
				]
			},
			"properties": {
				"Network": "TU",
				"Code": "DEMI",
				"Height": 920.0,
				"Province": "Manisa",
				"District": "Demirci"
			}
		},
		{
			"type": "Feature",
			"geometry": {
				"type": "Point",
				"coordinates": [
					27.2418,
					37.7139
				]
			},
			"properties": {
				"Network": "TU",
				"Code": "GCAM",
				"Height": 38.0,
				"Province": "Aydın",
				"District": "Kuşadası"
			}
		},
		{
			"type": "Feature",
			"geometry": {
				"type": "Point",
				"coordinates": [
					28.2444,
					36.7753
				]
			},
			"properties": {
				"Network": "TU",
				"Code": "TURN",
				"Height": 28.0,
				"Province": "Muğla",
				"District": "Marmaris"
			}
		},
		{
			"type": "Feature",
			"geometry": {
				"type": "Point",
				"coordinates": [
					33.7165,
					41.0521
				]
			},
			"properties": {
				"Network": "TU",
				"Code": "ILGA",
				"Height": 2069.0,
				"Province": "Çankırı",
				"District": "Ilgaz"
			}
		},
		{
			"type": "Feature",
			"geometry": {
				"type": "Point",
				"coordinates": [
					41.6667,
					41.3452
				]
			},
			"properties": {
				"Network": "TU",
				"Code": "DBOC",
				"Height": 578.0,
				"Province": "Artvin",
				"District": "Borçka"
			}
		},
		{
			"type": "Feature",
			"geometry": {
				"type": "Point",
				"coordinates": [
					41.9142,
					41.0778
				]
			},
			"properties": {
				"Network": "TU",
				"Code": "DAGI",
				"Height": 1188.0,
				"Province": "Artvin",
				"District": "Merkez"
			}
		},
		{
			"type": "Feature",
			"geometry": {
				"type": "Point",
				"coordinates": [
					41.6947,
					41.0183
				]
			},
			"properties": {
				"Network": "TU",
				"Code": "DBAD",
				"Height": 1139.0,
				"Province": "Artvin",
				"District": "Yusufeli"
			}
		},
		{
			"type": "Feature",
			"geometry": {
				"type": "Point",
				"coordinates": [
					41.7537,
					40.8925
				]
			},
			"properties": {
				"Network": "TU",
				"Code": "DDEM",
				"Height": 1425.0,
				"Province": "Artvin",
				"District": "Yusufeli"
			}
		},
		{
			"type": "Feature",
			"geometry": {
				"type": "Point",
				"coordinates": [
					37.075,
					36.7735
				]
			},
			"properties": {
				"Network": "TU",
				"Code": "KUZU",
				"Height": 701.0,
				"Province": "Kilis",
				"District": "Merkez"
			}
		},
		{
			"type": "Feature",
			"geometry": {
				"type": "Point",
				"coordinates": [
					36.4783,
					40.3232
				]
			},
			"properties": {
				"Network": "TU",
				"Code": "TOKA",
				"Height": 679.0,
				"Province": "Tokat",
				"District": "Merkez"
			}
		},
		{
			"type": "Feature",
			"geometry": {
				"type": "Point",
				"coordinates": [
					33.1198,
					39.5561
				]
			},
			"properties": {
				"Network": "TU",
				"Code": "BALAT",
				"Height": 1301.0,
				"Province": "Ankara",
				"District": "Bala"
			}
		},
		{
			"type": "Feature",
			"geometry": {
				"type": "Point",
				"coordinates": [
					33.123,
					39.5427
				]
			},
			"properties": {
				"Network": "TU",
				"Code": "BBAL",
				"Height": 1312.0,
				"Province": "Ankara",
				"District": "Bala"
			}
		},
		{
			"type": "Feature",
			"geometry": {
				"type": "Point",
				"coordinates": [
					30.3503,
					37.0007
				]
			},
			"properties": {
				"Network": "TU",
				"Code": "KORT",
				"Height": 1304.0,
				"Province": "Antalya",
				"District": "Korkuteli"
			}
		},
		{
			"type": "Feature",
			"geometry": {
				"type": "Point",
				"coordinates": [
					32.3157,
					36.2347
				]
			},
			"properties": {
				"Network": "TU",
				"Code": "GAZI",
				"Height": 394.0,
				"Province": "Antalya",
				"District": "Gazipaşa"
			}
		},
		{
			"type": "Feature",
			"geometry": {
				"type": "Point",
				"coordinates": [
					36.7547,
					40.6814
				]
			},
			"properties": {
				"Network": "TU",
				"Code": "ERBA",
				"Height": 655.0,
				"Province": "Tokat",
				"District": "Erbaa"
			}
		},
		{
			"type": "Feature",
			"geometry": {
				"type": "Point",
				"coordinates": [
					38.2025,
					40.2086
				]
			},
			"properties": {
				"Network": "TU",
				"Code": "SUSE",
				"Height": 1586.0,
				"Province": "Sivas",
				"District": "Suşehri"
			}
		},
		{
			"type": "Feature",
			"geometry": {
				"type": "Point",
				"coordinates": [
					37.1286,
					39.8613
				]
			},
			"properties": {
				"Network": "TU",
				"Code": "SCER",
				"Height": 1428.0,
				"Province": "Sivas",
				"District": "Merkez"
			}
		},
		{
			"type": "Feature",
			"geometry": {
				"type": "Point",
				"coordinates": [
					43.0586,
					38.3122
				]
			},
			"properties": {
				"Network": "TU",
				"Code": "GEVA",
				"Height": 1672.0,
				"Province": "Van",
				"District": "Gevaş"
			}
		},
		{
			"type": "Feature",
			"geometry": {
				"type": "Point",
				"coordinates": [
					42.413,
					37.4962
				]
			},
			"properties": {
				"Network": "TU",
				"Code": "SIRN",
				"Height": 968.0,
				"Province": "Şırnak",
				"District": "Merkez"
			}
		},
		{
			"type": "Feature",
			"geometry": {
				"type": "Point",
				"coordinates": [
					33.9286,
					41.4904
				]
			},
			"properties": {
				"Network": "TU",
				"Code": "KAST",
				"Height": 677.0,
				"Province": "Kastamonu",
				"District": "Merkez"
			}
		},
		{
			"type": "Feature",
			"geometry": {
				"type": "Point",
				"coordinates": [
					35.718,
					41.0743
				]
			},
			"properties": {
				"Network": "TU",
				"Code": "HAVZ",
				"Height": 575.0,
				"Province": "Samsun",
				"District": "Havza"
			}
		},
		{
			"type": "Feature",
			"geometry": {
				"type": "Point",
				"coordinates": [
					39.6975,
					39.7073
				]
			},
			"properties": {
				"Network": "TU",
				"Code": "EUZM",
				"Height": 1250.0,
				"Province": "Erzincan",
				"District": "Üzümlü"
			}
		},
		{
			"type": "Feature",
			"geometry": {
				"type": "Point",
				"coordinates": [
					39.9293,
					38.6943
				]
			},
			"properties": {
				"Network": "TU",
				"Code": "PALU",
				"Height": 100.0,
				"Province": "Elazığ",
				"District": "Palu"
			}
		},
		{
			"type": "Feature",
			"geometry": {
				"type": "Point",
				"coordinates": [
					34.1437,
					36.4803
				]
			},
			"properties": {
				"Network": "TU",
				"Code": "KIZK",
				"Height": 165.0,
				"Province": "Mersin",
				"District": "Erdemli"
			}
		},
		{
			"type": "Feature",
			"geometry": {
				"type": "Point",
				"coordinates": [
					42.064,
					39.2559
				]
			},
			"properties": {
				"Network": "TU",
				"Code": "EKAR",
				"Height": 2129.0,
				"Province": "Erzurum",
				"District": "Karaçoban"
			}
		},
		{
			"type": "Feature",
			"geometry": {
				"type": "Point",
				"coordinates": [
					42.7279,
					41.5035
				]
			},
			"properties": {
				"Network": "TU",
				"Code": "EPOS",
				"Height": 1499.0,
				"Province": "Ardahan",
				"District": "Posof"
			}
		},
		{
			"type": "Feature",
			"geometry": {
				"type": "Point",
				"coordinates": [
					43.6073,
					40.736
				]
			},
			"properties": {
				"Network": "TU",
				"Code": "EAK",
				"Height": 1605.0,
				"Province": "Kars",
				"District": "Akyaka"
			}
		},
		{
			"type": "Feature",
			"geometry": {
				"type": "Point",
				"coordinates": [
					42.4916,
					39.8622
				]
			},
			"properties": {
				"Network": "TU",
				"Code": "EATA",
				"Height": 2770.0,
				"Province": "Ağrı",
				"District": "Eleşkirt"
			}
		},
		{
			"type": "Feature",
			"geometry": {
				"type": "Point",
				"coordinates": [
					36.6677,
					37.1861
				]
			},
			"properties": {
				"Network": "TU",
				"Code": "KAMA",
				"Height": 983.0,
				"Province": "Osmaniye",
				"District": "Bahçe"
			}
		},
		{
			"type": "Feature",
			"geometry": {
				"type": "Point",
				"coordinates": [
					32.7534,
					39.9081
				]
			},
			"properties": {
				"Network": "TU",
				"Code": "DAD",
				"Height": 864.0,
				"Province": "Ankara",
				"District": "Çankaya"
			}
		},
		{
			"type": "Feature",
			"geometry": {
				"type": "Point",
				"coordinates": [
					33.1198,
					39.5561
				]
			},
			"properties": {
				"Network": "TU",
				"Code": "BALA",
				"Height": 1301.0,
				"Province": "Ankara",
				"District": "Bala"
			}
		},
		{
			"type": "Feature",
			"geometry": {
				"type": "Point",
				"coordinates": [
					30.9999,
					40.5706
				]
			},
			"properties": {
				"Network": "TU",
				"Code": "BTAS",
				"Height": 732.0,
				"Province": "Bolu",
				"District": "Mudurnu"
			}
		},
		{
			"type": "Feature",
			"geometry": {
				"type": "Point",
				"coordinates": [
					32.0656,
					40.8158
				]
			},
			"properties": {
				"Network": "TU",
				"Code": "BCAM",
				"Height": 1207.0,
				"Province": "Bolu",
				"District": "Yeniçağa"
			}
		},
		{
			"type": "Feature",
			"geometry": {
				"type": "Point",
				"coordinates": [
					35.4999,
					38.6896
				]
			},
			"properties": {
				"Network": "TK",
				"Code": "3801",
				"Height": 1096.0,
				"Province": "Kayseri",
				"District": "Melikgazi"
			}
		},
		{
			"type": "Feature",
			"geometry": {
				"type": "Point",
				"coordinates": [
					34.673,
					37.9678
				]
			},
			"properties": {
				"Network": "TK",
				"Code": "5102",
				"Height": 1229.0,
				"Province": "Niğde",
				"District": "Merkez"
			}
		},
		{
			"type": "Feature",
			"geometry": {
				"type": "Point",
				"coordinates": [
					41.008,
					40.4873
				]
			},
			"properties": {
				"Network": "TU",
				"Code": "ISPR",
				"Height": 1200.0,
				"Province": "Erzurum",
				"District": "İspir"
			}
		},
		{
			"type": "Feature",
			"geometry": {
				"type": "Point",
				"coordinates": [
					30.7886,
					37.9905
				]
			},
			"properties": {
				"Network": "TU",
				"Code": "BAGO",
				"Height": 958.0,
				"Province": "Isparta",
				"District": "Eğirdir"
			}
		},
		{
			"type": "Feature",
			"geometry": {
				"type": "Point",
				"coordinates": [
					36.7526,
					39.2734
				]
			},
			"properties": {
				"Network": "TU",
				"Code": "CUALT",
				"Height": 1471.0,
				"Province": "Sivas",
				"District": "Altınyayla"
			}
		},
		{
			"type": "Feature",
			"geometry": {
				"type": "Point",
				"coordinates": [
					37.4667,
					39.3163
				]
			},
			"properties": {
				"Network": "TU",
				"Code": "CUKAN",
				"Height": 1523.0,
				"Province": "Sivas",
				"District": "Kangal"
			}
		},
		{
			"type": "Feature",
			"geometry": {
				"type": "Point",
				"coordinates": [
					37.2719,
					38.7237
				]
			},
			"properties": {
				"Network": "TU",
				"Code": "CUGUR",
				"Height": 1401.0,
				"Province": "Sivas",
				"District": "Gürün"
			}
		},
		{
			"type": "Feature",
			"geometry": {
				"type": "Point",
				"coordinates": [
					36.2444,
					39.4185
				]
			},
			"properties": {
				"Network": "TU",
				"Code": "CUSAR",
				"Height": 1458.0,
				"Province": "Sivas",
				"District": "Şarkışla"
			}
		},
		{
			"type": "Feature",
			"geometry": {
				"type": "Point",
				"coordinates": [
					40.9742,
					39.6062
				]
			},
			"properties": {
				"Network": "TU",
				"Code": "ECAT",
				"Height": 1910.0,
				"Province": "Erzurum",
				"District": "Çat"
			}
		},
		{
			"type": "Feature",
			"geometry": {
				"type": "Point",
				"coordinates": [
					30.4315,
					40.6665
				]
			},
			"properties": {
				"Network": "TU",
				"Code": "CAYS",
				"Height": 290.0,
				"Province": "Sakarya",
				"District": "Erenler"
			}
		},
		{
			"type": "Feature",
			"geometry": {
				"type": "Point",
				"coordinates": [
					30.7199,
					40.6915
				]
			},
			"properties": {
				"Network": "TU",
				"Code": "ASA",
				"Height": 230.0,
				"Province": "Sakarya",
				"District": "Hendek"
			}
		},
		{
			"type": "Feature",
			"geometry": {
				"type": "Point",
				"coordinates": [
					30.6147,
					40.6006
				]
			},
			"properties": {
				"Network": "TU",
				"Code": "TAS",
				"Height": 400.0,
				"Province": "Sakarya",
				"District": "Akyazı"
			}
		},
		{
			"type": "Feature",
			"geometry": {
				"type": "Point",
				"coordinates": [
					30.6001,
					40.8978
				]
			},
			"properties": {
				"Network": "TU",
				"Code": "YUT",
				"Height": 150.0,
				"Province": "Sakarya",
				"District": "Hendek"
			}
		},
		{
			"type": "Feature",
			"geometry": {
				"type": "Point",
				"coordinates": [
					30.8467,
					40.5579
				]
			},
			"properties": {
				"Network": "TU",
				"Code": "DOK",
				"Height": 635.0,
				"Province": "Sakarya",
				"District": "Akyazı"
			}
		},
		{
			"type": "Feature",
			"geometry": {
				"type": "Point",
				"coordinates": [
					30.2065,
					40.927
				]
			},
			"properties": {
				"Network": "TU",
				"Code": "KAR",
				"Height": 260.0,
				"Province": "Kocaeli",
				"District": "İzmit"
			}
		},
		{
			"type": "Feature",
			"geometry": {
				"type": "Point",
				"coordinates": [
					30.3771,
					40.9573
				]
			},
			"properties": {
				"Network": "TU",
				"Code": "OFL",
				"Height": 350.0,
				"Province": "Sakarya",
				"District": "Kaynarca"
			}
		},
		{
			"type": "Feature",
			"geometry": {
				"type": "Point",
				"coordinates": [
					30.2275,
					40.7729
				]
			},
			"properties": {
				"Network": "TU",
				"Code": "ESE",
				"Height": 437.0,
				"Province": "Kocaeli",
				"District": "Kartepe"
			}
		},
		{
			"type": "Feature",
			"geometry": {
				"type": "Point",
				"coordinates": [
					31.1771,
					40.7445
				]
			},
			"properties": {
				"Network": "TU",
				"Code": "CND",
				"Height": 950.0,
				"Province": "Düzce",
				"District": "Merkez"
			}
		},
		{
			"type": "Feature",
			"geometry": {
				"type": "Point",
				"coordinates": [
					31.0412,
					40.544
				]
			},
			"properties": {
				"Network": "TU",
				"Code": "EKI",
				"Height": 890.0,
				"Province": "Bolu",
				"District": "Mudurnu"
			}
		},
		{
			"type": "Feature",
			"geometry": {
				"type": "Point",
				"coordinates": [
					30.3057,
					40.436
				]
			},
			"properties": {
				"Network": "TU",
				"Code": "CIN",
				"Height": 1100.0,
				"Province": "Sakarya",
				"District": "Geyve"
			}
		},
		{
			"type": "Feature",
			"geometry": {
				"type": "Point",
				"coordinates": [
					30.8986,
					40.8214
				]
			},
			"properties": {
				"Network": "TU",
				"Code": "HEN",
				"Height": 590.0,
				"Province": "Sakarya",
				"District": "Hendek"
			}
		},
		{
			"type": "Feature",
			"geometry": {
				"type": "Point",
				"coordinates": [
					31.1453,
					40.6052
				]
			},
			"properties": {
				"Network": "TU",
				"Code": "GOK",
				"Height": 1090.0,
				"Province": "Bolu",
				"District": "Mudurnu"
			}
		},
		{
			"type": "Feature",
			"geometry": {
				"type": "Point",
				"coordinates": [
					31.2089,
					40.9723
				]
			},
			"properties": {
				"Network": "TU",
				"Code": "AKC",
				"Height": 680.0,
				"Province": "Düzce",
				"District": "Merkez"
			}
		},
		{
			"type": "Feature",
			"geometry": {
				"type": "Point",
				"coordinates": [
					27.263,
					39.954
				]
			},
			"properties": {
				"Network": "TU",
				"Code": "NEV",
				"Height": 329.0,
				"Province": "Çanakkale",
				"District": "Yenice"
			}
		},
		{
			"type": "Feature",
			"geometry": {
				"type": "Point",
				"coordinates": [
					29.4501,
					40.7866
				]
			},
			"properties": {
				"Network": "TB",
				"Code": "GBZM",
				"Height": 270.0,
				"Province": "Kocaeli",
				"District": "Gebze"
			}
		},
		{
			"type": "Feature",
			"geometry": {
				"type": "Point",
				"coordinates": [
					27.069,
					40.418
				]
			},
			"properties": {
				"Network": "TB",
				"Code": "KMR",
				"Height": 40.0,
				"Province": "Çanakkale",
				"District": "Biga"
			}
		},
		{
			"type": "Feature",
			"geometry": {
				"type": "Point",
				"coordinates": [
					28.782,
					40.534
				]
			},
			"properties": {
				"Network": "TB",
				"Code": "BOZ",
				"Height": 119.0,
				"Province": "Yalova",
				"District": "Armutlu"
			}
		},
		{
			"type": "Feature",
			"geometry": {
				"type": "Point",
				"coordinates": [
					28.8913,
					40.0453
				]
			},
			"properties": {
				"Network": "TU",
				"Code": "ERE",
				"Height": 657.0,
				"Province": "Bursa",
				"District": "Orhaneli"
			}
		},
		{
			"type": "Feature",
			"geometry": {
				"type": "Point",
				"coordinates": [
					29.2015,
					40.2641
				]
			},
			"properties": {
				"Network": "TB",
				"Code": "IGD",
				"Height": 165.0,
				"Province": "Bursa",
				"District": "Gürsu"
			}
		},
		{
			"type": "Feature",
			"geometry": {
				"type": "Point",
				"coordinates": [
					28.3323,
					40.2625
				]
			},
			"properties": {
				"Network": "TB",
				"Code": "KRC",
				"Height": 443.0,
				"Province": "Bursa",
				"District": "Karacabey"
			}
		},
		{
			"type": "Feature",
			"geometry": {
				"type": "Point",
				"coordinates": [
					27.3967,
					40.8258
				]
			},
			"properties": {
				"Network": "TB",
				"Code": "YNK",
				"Height": 370.0,
				"Province": "Tekirdağ",
				"District": "Süleymanpaşa"
			}
		},
		{
			"type": "Feature",
			"geometry": {
				"type": "Point",
				"coordinates": [
					28.2092,
					41.2288
				]
			},
			"properties": {
				"Network": "TU",
				"Code": "SNL",
				"Height": 173.0,
				"Province": "İstanbul",
				"District": "Silivri"
			}
		},
		{
			"type": "Feature",
			"geometry": {
				"type": "Point",
				"coordinates": [
					27.3448,
					41.1269
				]
			},
			"properties": {
				"Network": "TB",
				"Code": "KKZ",
				"Height": 143.0,
				"Province": "Tekirdağ",
				"District": "Süleymanpaşa"
			}
		},
		{
			"type": "Feature",
			"geometry": {
				"type": "Point",
				"coordinates": [
					27.9617,
					40.967
				]
			},
			"properties": {
				"Network": "TB",
				"Code": "MAR",
				"Height": 41.0,
				"Province": "Tekirdağ",
				"District": "Marmaraereğlisi"
			}
		},
		{
			"type": "Feature",
			"geometry": {
				"type": "Point",
				"coordinates": [
					27.5261,
					40.2707
				]
			},
			"properties": {
				"Network": "TB",
				"Code": "KNL",
				"Height": 178.0,
				"Province": "Balıkesir",
				"District": "Gönen"
			}
		},
		{
			"type": "Feature",
			"geometry": {
				"type": "Point",
				"coordinates": [
					28.9455,
					40.6069
				]
			},
			"properties": {
				"Network": "TB",
				"Code": "ESKM",
				"Height": 96.0,
				"Province": "Yalova",
				"District": "Çınarcık"
			}
		},
		{
			"type": "Feature",
			"geometry": {
				"type": "Point",
				"coordinates": [
					27.6647,
					40.6538
				]
			},
			"properties": {
				"Network": "TB",
				"Code": "MADM",
				"Height": 40.0,
				"Province": "Balıkesir",
				"District": "Marmara"
			}
		},
		{
			"type": "Feature",
			"geometry": {
				"type": "Point",
				"coordinates": [
					26.8877,
					40.6041
				]
			},
			"properties": {
				"Network": "TB",
				"Code": "KVK",
				"Height": 75.0,
				"Province": "Çanakkale",
				"District": "Gelibolu"
			}
		},
		{
			"type": "Feature",
			"geometry": {
				"type": "Point",
				"coordinates": [
					27.7786,
					40.5057
				]
			},
			"properties": {
				"Network": "TB",
				"Code": "TRNM",
				"Height": 80.0,
				"Province": "Balıkesir",
				"District": "Erdek"
			}
		},
		{
			"type": "Feature",
			"geometry": {
				"type": "Point",
				"coordinates": [
					27.1081,
					40.767
				]
			},
			"properties": {
				"Network": "TB",
				"Code": "SGTM",
				"Height": 295.0,
				"Province": "Tekirdağ",
				"District": "Malkara"
			}
		},
		{
			"type": "Feature",
			"geometry": {
				"type": "Point",
				"coordinates": [
					28.6,
					40.3495
				]
			},
			"properties": {
				"Network": "TB",
				"Code": "MSDM",
				"Height": 201.0,
				"Province": "Bursa",
				"District": "Mudanya"
			}
		},
		{
			"type": "Feature",
			"geometry": {
				"type": "Point",
				"coordinates": [
					28.1403,
					41.0731
				]
			},
			"properties": {
				"Network": "TB",
				"Code": "SLV",
				"Height": 30.0,
				"Province": "İstanbul",
				"District": "Silivri"
			}
		},
		{
			"type": "Feature",
			"geometry": {
				"type": "Point",
				"coordinates": [
					27.5633,
					40.083
				]
			},
			"properties": {
				"Network": "TB",
				"Code": "ATI",
				"Height": 230.0,
				"Province": "Balıkesir",
				"District": "Gönen"
			}
		},
		{
			"type": "Feature",
			"geometry": {
				"type": "Point",
				"coordinates": [
					29.1175,
					40.8526
				]
			},
			"properties": {
				"Network": "TB",
				"Code": "BUY",
				"Height": 231.0,
				"Province": "İstanbul",
				"District": "Adalar"
			}
		},
		{
			"type": "Feature",
			"geometry": {
				"type": "Point",
				"coordinates": [
					27.3125,
					38.7484
				]
			},
			"properties": {
				"Network": "TU",
				"Code": "CAM",
				"Height": 279.0,
				"Province": "Manisa",
				"District": "Yunusemre"
			}
		},
		{
			"type": "Feature",
			"geometry": {
				"type": "Point",
				"coordinates": [
					26.8826,
					38.0521
				]
			},
			"properties": {
				"Network": "TU",
				"Code": "DGB",
				"Height": 22.0,
				"Province": "İzmir",
				"District": "Seferihisar"
			}
		},
		{
			"type": "Feature",
			"geometry": {
				"type": "Point",
				"coordinates": [
					28.8528,
					37.8019
				]
			},
			"properties": {
				"Network": "TU",
				"Code": "BBD",
				"Height": 888.0,
				"Province": "Denizli",
				"District": "Babadağ"
			}
		},
		{
			"type": "Feature",
			"geometry": {
				"type": "Point",
				"coordinates": [
					27.8219,
					38.6349
				]
			},
			"properties": {
				"Network": "TU",
				"Code": "BLN",
				"Height": 348.0,
				"Province": "Manisa",
				"District": "Saruhanlı"
			}
		},
		{
			"type": "Feature",
			"geometry": {
				"type": "Point",
				"coordinates": [
					28.1066,
					37.7522
				]
			},
			"properties": {
				"Network": "TU",
				"Code": "CVD",
				"Height": 386.0,
				"Province": "Aydın",
				"District": "Yenipazar"
			}
		},
		{
			"type": "Feature",
			"geometry": {
				"type": "Point",
				"coordinates": [
					28.7992,
					38.3411
				]
			},
			"properties": {
				"Network": "TU",
				"Code": "HAR",
				"Height": 901.0,
				"Province": "Uşak",
				"District": "Eşme"
			}
		},
		{
			"type": "Feature",
			"geometry": {
				"type": "Point",
				"coordinates": [
					27.3235,
					38.515
				]
			},
			"properties": {
				"Network": "TU",
				"Code": "YAK",
				"Height": 484.0,
				"Province": "İzmir",
				"District": "Bornova"
			}
		},
		{
			"type": "Feature",
			"geometry": {
				"type": "Point",
				"coordinates": [
					27.9487,
					38.4058
				]
			},
			"properties": {
				"Network": "TU",
				"Code": "YEN",
				"Height": 928.0,
				"Province": "Manisa",
				"District": "Salihli"
			}
		},
		{
			"type": "Feature",
			"geometry": {
				"type": "Point",
				"coordinates": [
					28.5716,
					38.465
				]
			},
			"properties": {
				"Network": "TU",
				"Code": "KON",
				"Height": 606.0,
				"Province": "Manisa",
				"District": "Kula"
			}
		},
		{
			"type": "Feature",
			"geometry": {
				"type": "Point",
				"coordinates": [
					28.093,
					38.6883
				]
			},
			"properties": {
				"Network": "TU",
				"Code": "KTT",
				"Height": 493.0,
				"Province": "Manisa",
				"District": "Salihli"
			}
		},
		{
			"type": "Feature",
			"geometry": {
				"type": "Point",
				"coordinates": [
					29.1746,
					38.0313
				]
			},
			"properties": {
				"Network": "TU",
				"Code": "UZP",
				"Height": 1203.0,
				"Province": "Denizli",
				"District": "Pamukkale"
			}
		},
		{
			"type": "Feature",
			"geometry": {
				"type": "Point",
				"coordinates": [
					28.4235,
					38.1342
				]
			},
			"properties": {
				"Network": "TU",
				"Code": "KRB",
				"Height": 823.0,
				"Province": "İzmir",
				"District": "Kiraz"
			}
		},
		{
			"type": "Feature",
			"geometry": {
				"type": "Point",
				"coordinates": [
					28.7676,
					38.0536
				]
			},
			"properties": {
				"Network": "TU",
				"Code": "SUL",
				"Height": 1194.0,
				"Province": "Denizli",
				"District": "Buldan"
			}
		},
		{
			"type": "Feature",
			"geometry": {
				"type": "Point",
				"coordinates": [
					28.5726,
					37.8139
				]
			},
			"properties": {
				"Network": "TU",
				"Code": "YNC",
				"Height": 248.0,
				"Province": "Aydın",
				"District": "Karacasu"
			}
		},
		{
			"type": "Feature",
			"geometry": {
				"type": "Point",
				"coordinates": [
					27.4491,
					38.22
				]
			},
			"properties": {
				"Network": "TU",
				"Code": "DUV",
				"Height": 246.0,
				"Province": "İzmir",
				"District": "Torbalı"
			}
		},
		{
			"type": "Feature",
			"geometry": {
				"type": "Point",
				"coordinates": [
					26.9271,
					38.227
				]
			},
			"properties": {
				"Network": "TU",
				"Code": "BEY",
				"Height": 336.0,
				"Province": "İzmir",
				"District": "Seferihisar"
			}
		},
		{
			"type": "Feature",
			"geometry": {
				"type": "Point",
				"coordinates": [
					27.7508,
					38.004
				]
			},
			"properties": {
				"Network": "TU",
				"Code": "DAG",
				"Height": 654.0,
				"Province": "İzmir",
				"District": "Tire"
			}
		},
		{
			"type": "Feature",
			"geometry": {
				"type": "Point",
				"coordinates": [
					26.5033,
					38.2389
				]
			},
			"properties": {
				"Network": "TU",
				"Code": "ZEY",
				"Height": 76.0,
				"Province": "İzmir",
				"District": "Urla"
			}
		},
		{
			"type": "Feature",
			"geometry": {
				"type": "Point",
				"coordinates": [
					26.8519,
					38.6554
				]
			},
			"properties": {
				"Network": "TU",
				"Code": "BAG",
				"Height": 89.0,
				"Province": "İzmir",
				"District": "Foça"
			}
		},
		{
			"type": "Feature",
			"geometry": {
				"type": "Point",
				"coordinates": [
					35.367,
					37.0625
				]
			},
			"properties": {
				"Network": "TU",
				"Code": "CKO",
				"Height": 135.0,
				"Province": "Adana",
				"District": "Sarıçam"
			}
		},
		{
			"type": "Feature",
			"geometry": {
				"type": "Point",
				"coordinates": [
					34.7993,
					36.9614
				]
			},
			"properties": {
				"Network": "TU",
				"Code": "DED",
				"Height": 479.0,
				"Province": "Mersin",
				"District": "Tarsus"
			}
		},
		{
			"type": "Feature",
			"geometry": {
				"type": "Point",
				"coordinates": [
					35.6438,
					37.2923
				]
			},
			"properties": {
				"Network": "TU",
				"Code": "IMO",
				"Height": 128.0,
				"Province": "Adana",
				"District": "İmamoğlu"
			}
		},
		{
			"type": "Feature",
			"geometry": {
				"type": "Point",
				"coordinates": [
					36.2496,
					36.8386
				]
			},
			"properties": {
				"Network": "TU",
				"Code": "DRY",
				"Height": 187.0,
				"Province": "Hatay",
				"District": "Dörtyol"
			}
		},
		{
			"type": "Feature",
			"geometry": {
				"type": "Point",
				"coordinates": [
					36.7569,
					37.1712
				]
			},
			"properties": {
				"Network": "TU",
				"Code": "NUR",
				"Height": 570.0,
				"Province": "Gaziantep",
				"District": "Nurdağı"
			}
		},
		{
			"type": "Feature",
			"geometry": {
				"type": "Point",
				"coordinates": [
					35.446,
					37.4615
				]
			},
			"properties": {
				"Network": "TU",
				"Code": "AKO",
				"Height": 450.0,
				"Province": "Adana",
				"District": "Aladağ"
			}
		},
		{
			"type": "Feature",
			"geometry": {
				"type": "Point",
				"coordinates": [
					36.2232,
					37.2595
				]
			},
			"properties": {
				"Network": "TU",
				"Code": "KRT",
				"Height": 636.0,
				"Province": "Osmaniye",
				"District": "Kadirli"
			}
		},
		{
			"type": "Feature",
			"geometry": {
				"type": "Point",
				"coordinates": [
					36.154,
					36.487
				]
			},
			"properties": {
				"Network": "TU",
				"Code": "GZY",
				"Height": 883.0,
				"Province": "Hatay",
				"District": "Belen"
			}
		},
		{
			"type": "Feature",
			"geometry": {
				"type": "Point",
				"coordinates": [
					36.5988,
					36.2597
				]
			},
			"properties": {
				"Network": "TU",
				"Code": "REY",
				"Height": 250.0,
				"Province": "Hatay",
				"District": "Reyhanlı"
			}
		},
		{
			"type": "Feature",
			"geometry": {
				"type": "Point",
				"coordinates": [
					36.9909,
					37.5234
				]
			},
			"properties": {
				"Network": "TU",
				"Code": "KHM",
				"Height": 614.0,
				"Province": "Kahramanmaraş",
				"District": "Dulkadiroğlu"
			}
		},
		{
			"type": "Feature",
			"geometry": {
				"type": "Point",
				"coordinates": [
					38.6101,
					37.8053
				]
			},
			"properties": {
				"Network": "TU",
				"Code": "KAH",
				"Height": 766.0,
				"Province": "Adıyaman",
				"District": "Kahta"
			}
		},
		{
			"type": "Feature",
			"geometry": {
				"type": "Point",
				"coordinates": [
					39.0352,
					38.0315
				]
			},
			"properties": {
				"Network": "TU",
				"Code": "GER",
				"Height": 815.0,
				"Province": "Adıyaman",
				"District": "Gerger"
			}
		},
		{
			"type": "Feature",
			"geometry": {
				"type": "Point",
				"coordinates": [
					37.855,
					37.7001
				]
			},
			"properties": {
				"Network": "TU",
				"Code": "BES",
				"Height": 1010.0,
				"Province": "Adıyaman",
				"District": "Besni"
			}
		},
		{
			"type": "Feature",
			"geometry": {
				"type": "Point",
				"coordinates": [
					39.9176,
					38.6986
				]
			},
			"properties": {
				"Network": "TU",
				"Code": "PAL",
				"Height": 1032.0,
				"Province": "Elazığ",
				"District": "Palu"
			}
		},
		{
			"type": "Feature",
			"geometry": {
				"type": "Point",
				"coordinates": [
					38.2066,
					38.0156
				]
			},
			"properties": {
				"Network": "TU",
				"Code": "CLH",
				"Height": 1304.0,
				"Province": "Adıyaman",
				"District": "Çelikhan"
			}
		},
		{
			"type": "Feature",
			"geometry": {
				"type": "Point",
				"coordinates": [
					38.6088,
					38.26
				]
			},
			"properties": {
				"Network": "TU",
				"Code": "PTG",
				"Height": 1784.0,
				"Province": "Malatya",
				"District": "Battalgazi"
			}
		},
		{
			"type": "Feature",
			"geometry": {
				"type": "Point",
				"coordinates": [
					39.6821,
					38.3931
				]
			},
			"properties": {
				"Network": "TU",
				"Code": "MDN",
				"Height": 1138.0,
				"Province": "Elazığ",
				"District": "Maden"
			}
		},
		{
			"type": "Feature",
			"geometry": {
				"type": "Point",
				"coordinates": [
					37.1574,
					37.3919
				]
			},
			"properties": {
				"Network": "TU",
				"Code": "NAR",
				"Height": 650.0,
				"Province": "Kahramanmaraş",
				"District": "Pazarcık"
			}
		},
		{
			"type": "Feature",
			"geometry": {
				"type": "Point",
				"coordinates": [
					37.296,
					37.747
				]
			},
			"properties": {
				"Network": "TU",
				"Code": "CGC",
				"Height": 1114.0,
				"Province": "Kahramanmaraş",
				"District": "Çağlayancerit"
			}
		},
		{
			"type": "Feature",
			"geometry": {
				"type": "Point",
				"coordinates": [
					39.2995,
					38.2145
				]
			},
			"properties": {
				"Network": "TU",
				"Code": "CNG",
				"Height": 1023.0,
				"Province": "Diyarbakır",
				"District": "Çüngüş"
			}
		},
		{
			"type": "Feature",
			"geometry": {
				"type": "Point",
				"coordinates": [
					38.985,
					38.497
				]
			},
			"properties": {
				"Network": "TU",
				"Code": "AKK",
				"Height": 1650.0,
				"Province": "Elazığ",
				"District": "Merkez"
			}
		},
		{
			"type": "Feature",
			"geometry": {
				"type": "Point",
				"coordinates": [
					39.1976,
					38.684
				]
			},
			"properties": {
				"Network": "TU",
				"Code": "FRT",
				"Height": 1100.0,
				"Province": "Elazığ",
				"District": "Merkez"
			}
		},
		{
			"type": "Feature",
			"geometry": {
				"type": "Point",
				"coordinates": [
					35.3182,
					37.1721
				]
			},
			"properties": {
				"Network": "TU",
				"Code": "CAY",
				"Height": 116.0,
				"Province": "Adana",
				"District": "Sarıçam"
			}
		},
		{
			"type": "Feature",
			"geometry": {
				"type": "Point",
				"coordinates": [
					36.465,
					36.7719
				]
			},
			"properties": {
				"Network": "TU",
				"Code": "HAS",
				"Height": 850.0,
				"Province": "Hatay",
				"District": "Hassa"
			}
		},
		{
			"type": "Feature",
			"geometry": {
				"type": "Point",
				"coordinates": [
					36.908,
					37.3438
				]
			},
			"properties": {
				"Network": "TU",
				"Code": "HCB",
				"Height": 516.0,
				"Province": "Kahramanmaraş",
				"District": "Türkoğlu"
			}
		},
		{
			"type": "Feature",
			"geometry": {
				"type": "Point",
				"coordinates": [
					36.8067,
					37.4144
				]
			},
			"properties": {
				"Network": "TU",
				"Code": "AYK",
				"Height": 580.0,
				"Province": "Kahramanmaraş",
				"District": "Türkoğlu"
			}
		},
		{
			"type": "Feature",
			"geometry": {
				"type": "Point",
				"coordinates": [
					38.4253,
					38.3257
				]
			},
			"properties": {
				"Network": "TU",
				"Code": "MLTY",
				"Height": 1050.0,
				"Province": "Malatya",
				"District": "Battalgazi"
			}
		},
		{
			"type": "Feature",
			"geometry": {
				"type": "Point",
				"coordinates": [
					35.8525,
					40.6681
				]
			},
			"properties": {
				"Network": "TU",
				"Code": "0001",
				"Height": 520.0,
				"Province": "Amasya",
				"District": "Merkez"
			}
		},
		{
			"type": "Feature",
			"geometry": {
				"type": "Point",
				"coordinates": [
					33.6018,
					40.6008
				]
			},
			"properties": {
				"Network": "TU",
				"Code": "0002",
				"Height": 805.0,
				"Province": "Çankırı",
				"District": "Merkez"
			}
		},
		{
			"type": "Feature",
			"geometry": {
				"type": "Point",
				"coordinates": [
					34.9826,
					40.5783
				]
			},
			"properties": {
				"Network": "TU",
				"Code": "0003",
				"Height": 894.0,
				"Province": "Çorum",
				"District": "Merkez"
			}
		},
		{
			"type": "Feature",
			"geometry": {
				"type": "Point",
				"coordinates": [
					33.7913,
					41.4128
				]
			},
			"properties": {
				"Network": "TU",
				"Code": "0004",
				"Height": 694.0,
				"Province": "Kastamonu",
				"District": "Merkez"
			}
		},
		{
			"type": "Feature",
			"geometry": {
				"type": "Point",
				"coordinates": [
					36.3683,
					41.2647
				]
			},
			"properties": {
				"Network": "TU",
				"Code": "0005",
				"Height": 460.0,
				"Province": "Samsun",
				"District": "Canik"
			}
		},
		{
			"type": "Feature",
			"geometry": {
				"type": "Point",
				"coordinates": [
					36.5466,
					40.3225
				]
			},
			"properties": {
				"Network": "TU",
				"Code": "0007",
				"Height": 680.0,
				"Province": "Tokat",
				"District": "Merkez"
			}
		},
		{
			"type": "Feature",
			"geometry": {
				"type": "Point",
				"coordinates": [
					34.8065,
					39.8118
				]
			},
			"properties": {
				"Network": "TU",
				"Code": "0009",
				"Height": 1358.0,
				"Province": "Yozgat",
				"District": "Merkez"
			}
		},
		{
			"type": "Feature",
			"geometry": {
				"type": "Point",
				"coordinates": [
					35.4355,
					41.1436
				]
			},
			"properties": {
				"Network": "TU",
				"Code": "0006",
				"Height": 130.0,
				"Province": "Samsun",
				"District": "Vezirköprü"
			}
		},
		{
			"type": "Feature",
			"geometry": {
				"type": "Point",
				"coordinates": [
					36.9555,
					40.5813
				]
			},
			"properties": {
				"Network": "TU",
				"Code": "0008",
				"Height": 720.0,
				"Province": "Tokat",
				"District": "Niksar"
			}
		},
		{
			"type": "Feature",
			"geometry": {
				"type": "Point",
				"coordinates": [
					32.753,
					39.9081
				]
			},
			"properties": {
				"Network": "TU",
				"Code": "0010",
				"Height": 850.0,
				"Province": "Ankara",
				"District": "Çankaya"
			}
		},
		{
			"type": "Feature",
			"geometry": {
				"type": "Point",
				"coordinates": [
					24.09,
					34.84
				]
			},
			"properties": {
				"Network": "GE",
				"Code": "GVD",
				"Height": 180.0,
				"Province": "-",
				"District": "-"
			}
		},
		{
			"type": "Feature",
			"geometry": {
				"type": "Point",
				"coordinates": [
					25.46,
					36.37
				]
			},
			"properties": {
				"Network": "GE",
				"Code": "SANT",
				"Height": 540.0,
				"Province": "-",
				"District": "-"
			}
		},
		{
			"type": "Feature",
			"geometry": {
				"type": "Point",
				"coordinates": [
					30.51,
					37.84
				]
			},
			"properties": {
				"Network": "GE",
				"Code": "ISP",
				"Height": 1100.0,
				"Province": "Isparta",
				"District": "Merkez"
			}
		},
		{
			"type": "Feature",
			"geometry": {
				"type": "Point",
				"coordinates": [
					33.33,
					34.96
				]
			},
			"properties": {
				"Network": "GE",
				"Code": "CSS",
				"Height": 396.0,
				"Province": "-",
				"District": "-"
			}
		},
		{
			"type": "Feature",
			"geometry": {
				"type": "Point",
				"coordinates": [
					26.22,
					35.11
				]
			},
			"properties": {
				"Network": "GE",
				"Code": "ZKR",
				"Height": 270.0,
				"Province": "-",
				"District": "-"
			}
		},
		{
			"type": "Feature",
			"geometry": {
				"type": "Point",
				"coordinates": [
					38.43,
					38.31
				]
			},
			"properties": {
				"Network": "GE",
				"Code": "MALT",
				"Height": 1120.0,
				"Province": "Malatya",
				"District": "Battalgazi"
			}
		},
		{
			"type": "Feature",
			"geometry": {
				"type": "Point",
				"coordinates": [
					25.53,
					37.07
				]
			},
			"properties": {
				"Network": "GE",
				"Code": "APE",
				"Height": 620.0,
				"Province": "-",
				"District": "-"
			}
		},
		{
			"type": "Feature",
			"geometry": {
				"type": "Point",
				"coordinates": [
					32.7936,
					39.8689
				]
			},
			"properties": {
				"Network": "IU",
				"Code": "ANTO",
				"Height": 883.0,
				"Province": "Ankara",
				"District": "Çankaya"
			}
		},
		{
			"type": "Feature",
			"geometry": {
				"type": "Point",
				"coordinates": [
					26.418,
					40.11
				]
			},
			"properties": {
				"Network": "TU",
				"Code": "TROY",
				"Height": 95.0,
				"Province": "Çanakkale",
				"District": "Merkez"
			}
		},
		{
			"type": "Feature",
			"geometry": {
				"type": "Point",
				"coordinates": [
					29.398,
					40.633
				]
			},
			"properties": {
				"Network": "TU",
				"Code": "KLC",
				"Height": 138.0,
				"Province": "Yalova",
				"District": "Çiftlikköy"
			}
		},
		{
			"type": "Feature",
			"geometry": {
				"type": "Point",
				"coordinates": [
					28.74,
					41.088
				]
			},
			"properties": {
				"Network": "TU",
				"Code": "ALT",
				"Height": 18.0,
				"Province": "İstanbul",
				"District": "Başakşehir"
			}
		},
		{
			"type": "Feature",
			"geometry": {
				"type": "Point",
				"coordinates": [
					27.9703,
					40.0115
				]
			},
			"properties": {
				"Network": "TU",
				"Code": "CMH",
				"Height": 205.0,
				"Province": "Balıkesir",
				"District": "Manyas"
			}
		},
		{
			"type": "Feature",
			"geometry": {
				"type": "Point",
				"coordinates": [
					30.9996,
					37.4765
				]
			},
			"properties": {
				"Network": "TU",
				"Code": "SDU",
				"Height": 0.0,
				"Province": "Isparta",
				"District": "Sütçüler"
			}
		},
		{
			"type": "Feature",
			"geometry": {
				"type": "Point",
				"coordinates": [
					29.2696,
					37.7495
				]
			},
			"properties": {
				"Network": "TU",
				"Code": "HNZ",
				"Height": 797.0,
				"Province": "Denizli",
				"District": "Honaz"
			}
		},
		{
			"type": "Feature",
			"geometry": {
				"type": "Point",
				"coordinates": [
					32.7422,
					39.3417
				]
			},
			"properties": {
				"Network": "TU",
				"Code": "DRP",
				"Height": 1134.0,
				"Province": "Ankara",
				"District": "Haymana"
			}
		},
		{
			"type": "Feature",
			"geometry": {
				"type": "Point",
				"coordinates": [
					33.2629,
					39.1961
				]
			},
			"properties": {
				"Network": "TU",
				"Code": "BKS",
				"Height": 998.0,
				"Province": "Ankara",
				"District": "Şereflikoçhisar"
			}
		},
		{
			"type": "Feature",
			"geometry": {
				"type": "Point",
				"coordinates": [
					33.5885,
					39.4517
				]
			},
			"properties": {
				"Network": "TU",
				"Code": "CEV",
				"Height": 1029.0,
				"Province": "Kırıkkale",
				"District": "Çelebi"
			}
		},
		{
			"type": "Feature",
			"geometry": {
				"type": "Point",
				"coordinates": [
					33.0964,
					39.2884
				]
			},
			"properties": {
				"Network": "TU",
				"Code": "SOF",
				"Height": 975.0,
				"Province": "Ankara",
				"District": "Bala"
			}
		},
		{
			"type": "Feature",
			"geometry": {
				"type": "Point",
				"coordinates": [
					32.8304,
					39.6851
				]
			},
			"properties": {
				"Network": "TU",
				"Code": "OGB",
				"Height": 1130.0,
				"Province": "Ankara",
				"District": "Gölbaşı"
			}
		},
		{
			"type": "Feature",
			"geometry": {
				"type": "Point",
				"coordinates": [
					32.927,
					39.1704
				]
			},
			"properties": {
				"Network": "TU",
				"Code": "YAR",
				"Height": 1154.0,
				"Province": "Konya",
				"District": "Kulu"
			}
		},
		{
			"type": "Feature",
			"geometry": {
				"type": "Point",
				"coordinates": [
					29.1715,
					36.8415
				]
			},
			"properties": {
				"Network": "TU",
				"Code": "CARP",
				"Height": 986.0,
				"Province": "Muğla",
				"District": "Fethiye"
			}
		},
		{
			"type": "Feature",
			"geometry": {
				"type": "Point",
				"coordinates": [
					29.1922,
					36.9732
				]
			},
			"properties": {
				"Network": "TU",
				"Code": "CKRZ",
				"Height": 860.0,
				"Province": "Denizli",
				"District": "Çameli"
			}
		},
		{
			"type": "Feature",
			"geometry": {
				"type": "Point",
				"coordinates": [
					28.9968,
					36.886
				]
			},
			"properties": {
				"Network": "TU",
				"Code": "CELM",
				"Height": 815.0,
				"Province": "Muğla",
				"District": "Dalaman"
			}
		},
		{
			"type": "Feature",
			"geometry": {
				"type": "Point",
				"coordinates": [
					29.3126,
					37.0379
				]
			},
			"properties": {
				"Network": "TU",
				"Code": "CBCK",
				"Height": 1250.0,
				"Province": "Denizli",
				"District": "Çameli"
			}
		},
		{
			"type": "Feature",
			"geometry": {
				"type": "Point",
				"coordinates": [
					29.2462,
					37.0925
				]
			},
			"properties": {
				"Network": "TU",
				"Code": "CKCV",
				"Height": 1102.0,
				"Province": "Denizli",
				"District": "Çameli"
			}
		},
		{
			"type": "Feature",
			"geometry": {
				"type": "Point",
				"coordinates": [
					29.0769,
					37.0645
				]
			},
			"properties": {
				"Network": "TU",
				"Code": "CSKZ",
				"Height": 745.0,
				"Province": "Denizli",
				"District": "Acıpayam"
			}
		},
		{
			"type": "Feature",
			"geometry": {
				"type": "Point",
				"coordinates": [
					29.2581,
					36.9352
				]
			},
			"properties": {
				"Network": "TU",
				"Code": "CTSC",
				"Height": 1052.0,
				"Province": "Denizli",
				"District": "Çameli"
			}
		},
		{
			"type": "Feature",
			"geometry": {
				"type": "Point",
				"coordinates": [
					29.2732,
					36.7155
				]
			},
			"properties": {
				"Network": "TU",
				"Code": "CUZM",
				"Height": 703.0,
				"Province": "Muğla",
				"District": "Fethiye"
			}
		},
		{
			"type": "Feature",
			"geometry": {
				"type": "Point",
				"coordinates": [
					31.4832,
					39.8679
				]
			},
			"properties": {
				"Network": "TU",
				"Code": "AUMIH",
				"Height": 1416.0,
				"Province": "Eskişehir",
				"District": "Mihalıcçık"
			}
		},
		{
			"type": "Feature",
			"geometry": {
				"type": "Point",
				"coordinates": [
					31.5397,
					39.4396
				]
			},
			"properties": {
				"Network": "TU",
				"Code": "AUSIV",
				"Height": 1111.0,
				"Province": "Eskişehir",
				"District": "Sivrihisar"
			}
		},
		{
			"type": "Feature",
			"geometry": {
				"type": "Point",
				"coordinates": [
					30.0213,
					39.3955
				]
			},
			"properties": {
				"Network": "TU",
				"Code": "AUKUT",
				"Height": 1085.0,
				"Province": "Kütahya",
				"District": "Merkez"
			}
		},
		{
			"type": "Feature",
			"geometry": {
				"type": "Point",
				"coordinates": [
					30.5308,
					39.2872
				]
			},
			"properties": {
				"Network": "TU",
				"Code": "AUKIR",
				"Height": 1088.0,
				"Province": "Eskişehir",
				"District": "Seyitgazi"
			}
		},
		{
			"type": "Feature",
			"geometry": {
				"type": "Point",
				"coordinates": [
					30.0325,
					39.9107
				]
			},
			"properties": {
				"Network": "TU",
				"Code": "AUBOZ",
				"Height": 853.0,
				"Province": "Bilecik",
				"District": "Bozüyük"
			}
		},
		{
			"type": "Feature",
			"geometry": {
				"type": "Point",
				"coordinates": [
					29.4152,
					36.9873
				]
			},
			"properties": {
				"Network": "TU",
				"Code": "CIBE",
				"Height": 1112.0,
				"Province": "Burdur",
				"District": "Gölhisar"
			}
		},
		{
			"type": "Feature",
			"geometry": {
				"type": "Point",
				"coordinates": [
					29.4108,
					36.8551
				]
			},
			"properties": {
				"Network": "TU",
				"Code": "CBAL",
				"Height": 1373.0,
				"Province": "Burdur",
				"District": "Altınyayla"
			}
		},
		{
			"type": "Feature",
			"geometry": {
				"type": "Point",
				"coordinates": [
					26.9865,
					40.1727
				]
			},
			"properties": {
				"Network": "TU",
				"Code": "BZG",
				"Height": 180.0,
				"Province": "Çanakkale",
				"District": "Biga"
			}
		},
		{
			"type": "Feature",
			"geometry": {
				"type": "Point",
				"coordinates": [
					34.7897,
					40.6231
				]
			},
			"properties": {
				"Network": "TU",
				"Code": "CTK",
				"Height": 1650.0,
				"Province": "Çorum",
				"District": "Merkez"
			}
		},
		{
			"type": "Feature",
			"geometry": {
				"type": "Point",
				"coordinates": [
					37.7705,
					39.8882
				]
			},
			"properties": {
				"Network": "TU",
				"Code": "CUZAR",
				"Height": 1425.0,
				"Province": "Sivas",
				"District": "Zara"
			}
		},
		{
			"type": "Feature",
			"geometry": {
				"type": "Point",
				"coordinates": [
					34.7763,
					37.2837
				]
			},
			"properties": {
				"Network": "-",
				"Code": "GUL",
				"Height": 1625.0,
				"Province": "Mersin",
				"District": "Tarsus"
			}
		},
		{
			"type": "Feature",
			"geometry": {
				"type": "Point",
				"coordinates": [
					35.8198,
					37.4338
				]
			},
			"properties": {
				"Network": "TU",
				"Code": "KOZ",
				"Height": 118.0,
				"Province": "Adana",
				"District": "Kozan"
			}
		},
		{
			"type": "Feature",
			"geometry": {
				"type": "Point",
				"coordinates": [
					28.5578,
					38.4908
				]
			},
			"properties": {
				"Network": "TU",
				"Code": "MANS",
				"Height": 961.0,
				"Province": "Manisa",
				"District": "Kula"
			}
		},
		{
			"type": "Feature",
			"geometry": {
				"type": "Point",
				"coordinates": [
					30.4356,
					36.2748
				]
			},
			"properties": {
				"Network": "TU",
				"Code": "MARK",
				"Height": 999.0,
				"Province": "Antalya",
				"District": "Kumluca"
			}
		},
		{
			"type": "Feature",
			"geometry": {
				"type": "Point",
				"coordinates": [
					27.7133,
					41.0325
				]
			},
			"properties": {
				"Network": "-",
				"Code": "MYC",
				"Height": 99.0,
				"Province": "Tekirdağ",
				"District": "Çorlu"
			}
		},
		{
			"type": "Feature",
			"geometry": {
				"type": "Point",
				"coordinates": [
					41.9734,
					40.546
				]
			},
			"properties": {
				"Network": "TU",
				"Code": "OLTU",
				"Height": 1350.0,
				"Province": "Erzurum",
				"District": "Oltu"
			}
		},
		{
			"type": "Feature",
			"geometry": {
				"type": "Point",
				"coordinates": [
					28.0311,
					39.7617
				]
			},
			"properties": {
				"Network": "TU",
				"Code": "TOKT",
				"Height": 407.0,
				"Province": "Balıkesir",
				"District": "Altıeylül"
			}
		},
		{
			"type": "Feature",
			"geometry": {
				"type": "Point",
				"coordinates": [
					43.4061,
					38.5286
				]
			},
			"properties": {
				"Network": "TU",
				"Code": "VAN",
				"Height": 0.0,
				"Province": "Van",
				"District": "Tuşba"
			}
		},
		{
			"type": "Feature",
			"geometry": {
				"type": "Point",
				"coordinates": [
					29.1267,
					40.9442
				]
			},
			"properties": {
				"Network": "-",
				"Code": "STZ",
				"Height": 30.0,
				"Province": "İstanbul",
				"District": "Maltepe"
			}
		},
		{
			"type": "Feature",
			"geometry": {
				"type": "Point",
				"coordinates": [
					29.1267,
					40.9442
				]
			},
			"properties": {
				"Network": "-",
				"Code": "SYY1",
				"Height": 30.0,
				"Province": "İstanbul",
				"District": "Maltepe"
			}
		},
		{
			"type": "Feature",
			"geometry": {
				"type": "Point",
				"coordinates": [
					29.2905,
					40.8212
				]
			},
			"properties": {
				"Network": "-",
				"Code": "EADA",
				"Height": 6.0,
				"Province": "İstanbul",
				"District": "Tuzla"
			}
		},
		{
			"type": "Feature",
			"geometry": {
				"type": "Point",
				"coordinates": [
					33.1206,
					39.5559
				]
			},
			"properties": {
				"Network": "TU",
				"Code": "BLA",
				"Height": 0.0,
				"Province": "Ankara",
				"District": "Bala"
			}
		},
		{
			"type": "Feature",
			"geometry": {
				"type": "Point",
				"coordinates": [
					29.3084,
					37.9475
				]
			},
			"properties": {
				"Network": "TU",
				"Code": "BAKC",
				"Height": 900.0,
				"Province": "Denizli",
				"District": "Çal"
			}
		},
		{
			"type": "Feature",
			"geometry": {
				"type": "Point",
				"coordinates": [
					29.1841,
					37.8831
				]
			},
			"properties": {
				"Network": "TU",
				"Code": "IRLI",
				"Height": 350.0,
				"Province": "Denizli",
				"District": "Pamukkale"
			}
		},
		{
			"type": "Feature",
			"geometry": {
				"type": "Point",
				"coordinates": [
					29.2088,
					37.8407
				]
			},
			"properties": {
				"Network": "TU",
				"Code": "KOCA",
				"Height": 345.0,
				"Province": "Denizli",
				"District": "Pamukkale"
			}
		},
		{
			"type": "Feature",
			"geometry": {
				"type": "Point",
				"coordinates": [
					28.9068,
					37.9613
				]
			},
			"properties": {
				"Network": "TU",
				"Code": "SAZA",
				"Height": 180.0,
				"Province": "Denizli",
				"District": "Sarayköy"
			}
		},
		{
			"type": "Feature",
			"geometry": {
				"type": "Point",
				"coordinates": [
					29.0378,
					37.8912
				]
			},
			"properties": {
				"Network": "TU",
				"Code": "UZER",
				"Height": 215.0,
				"Province": "Denizli",
				"District": "Merkezefendi"
			}
		},
		{
			"type": "Feature",
			"geometry": {
				"type": "Point",
				"coordinates": [
					38.7651,
					39.906
				]
			},
			"properties": {
				"Network": "TU",
				"Code": "REFA",
				"Height": 1594.0,
				"Province": "Erzincan",
				"District": "Refahiye"
			}
		},
		{
			"type": "Feature",
			"geometry": {
				"type": "Point",
				"coordinates": [
					34.1253,
					37.4146
				]
			},
			"properties": {
				"Network": "TU",
				"Code": "KERG",
				"Height": 1365.0,
				"Province": "Konya",
				"District": "Ereğli"
			}
		},
		{
			"type": "Feature",
			"geometry": {
				"type": "Point",
				"coordinates": [
					26.68,
					40.8259
				]
			},
			"properties": {
				"Network": "TU",
				"Code": "KESN",
				"Height": 366.0,
				"Province": "Edirne",
				"District": "Keşan"
			}
		},
		{
			"type": "Feature",
			"geometry": {
				"type": "Point",
				"coordinates": [
					32.9173,
					39.1713
				]
			},
			"properties": {
				"Network": "TU",
				"Code": "KULU",
				"Height": 1178.0,
				"Province": "Konya",
				"District": "Kulu"
			}
		},
		{
			"type": "Feature",
			"geometry": {
				"type": "Point",
				"coordinates": [
					30.1922,
					41.0943
				]
			},
			"properties": {
				"Network": "TU",
				"Code": "KAND",
				"Height": 75.0,
				"Province": "Kocaeli",
				"District": "Kandıra"
			}
		},
		{
			"type": "Feature",
			"geometry": {
				"type": "Point",
				"coordinates": [
					41.2699,
					37.8911
				]
			},
			"properties": {
				"Network": "TU",
				"Code": "BTMN",
				"Height": 962.0,
				"Province": "Batman",
				"District": "Beşiri"
			}
		},
		{
			"type": "Feature",
			"geometry": {
				"type": "Point",
				"coordinates": [
					38.6128,
					36.8793
				]
			},
			"properties": {
				"Network": "TU",
				"Code": "SURC",
				"Height": 632.0,
				"Province": "Şanlıurfa",
				"District": "Akçakale"
			}
		},
		{
			"type": "Feature",
			"geometry": {
				"type": "Point",
				"coordinates": [
					39.5422,
					39.1146
				]
			},
			"properties": {
				"Network": "TU",
				"Code": "TNCL",
				"Height": 1192.0,
				"Province": "Tunceli",
				"District": "Merkez"
			}
		},
		{
			"type": "Feature",
			"geometry": {
				"type": "Point",
				"coordinates": [
					43.5716,
					38.9894
				]
			},
			"properties": {
				"Network": "TU",
				"Code": "VMUR",
				"Height": 1717.0,
				"Province": "Van",
				"District": "Erciş"
			}
		},
		{
			"type": "Feature",
			"geometry": {
				"type": "Point",
				"coordinates": [
					34.986,
					40.2548
				]
			},
			"properties": {
				"Network": "TU",
				"Code": "CALC",
				"Height": 1154.0,
				"Province": "Çorum",
				"District": "Alaca"
			}
		},
		{
			"type": "Feature",
			"geometry": {
				"type": "Point",
				"coordinates": [
					36.1872,
					41.361
				]
			},
			"properties": {
				"Network": "TU",
				"Code": "SAMS",
				"Height": 192.0,
				"Province": "Samsun",
				"District": "Atakum"
			}
		},
		{
			"type": "Feature",
			"geometry": {
				"type": "Point",
				"coordinates": [
					37.8571,
					40.991
				]
			},
			"properties": {
				"Network": "TU",
				"Code": "ORDU",
				"Height": 526.0,
				"Province": "Ordu",
				"District": "Altınordu"
			}
		},
		{
			"type": "Feature",
			"geometry": {
				"type": "Point",
				"coordinates": [
					34.986,
					40.2548
				]
			},
			"properties": {
				"Network": "TU",
				"Code": "COAL",
				"Height": 1154.0,
				"Province": "Çorum",
				"District": "Alaca"
			}
		},
		{
			"type": "Feature",
			"geometry": {
				"type": "Point",
				"coordinates": [
					34.8474,
					38.8065
				]
			},
			"properties": {
				"Network": "TU",
				"Code": "AVNS",
				"Height": 1221.0,
				"Province": "Nevşehir",
				"District": "Avanos"
			}
		},
		{
			"type": "Feature",
			"geometry": {
				"type": "Point",
				"coordinates": [
					44.7382,
					41.7309
				]
			},
			"properties": {
				"Network": "GO",
				"Code": "TBLG",
				"Height": 540.0,
				"Province": "-",
				"District": "-"
			}
		},
		{
			"type": "Feature",
			"geometry": {
				"type": "Point",
				"coordinates": [
					45.3732,
					41.4507
				]
			},
			"properties": {
				"Network": "GO",
				"Code": "DGRG",
				"Height": 690.0,
				"Province": "-",
				"District": "-"
			}
		},
		{
			"type": "Feature",
			"geometry": {
				"type": "Point",
				"coordinates": [
					42.0841,
					42.7183
				]
			},
			"properties": {
				"Network": "GO",
				"Code": "CHVG",
				"Height": 390.0,
				"Province": "-",
				"District": "-"
			}
		},
		{
			"type": "Feature",
			"geometry": {
				"type": "Point",
				"coordinates": [
					43.4928,
					41.4101
				]
			},
			"properties": {
				"Network": "GO",
				"Code": "AKHA",
				"Height": 1720.0,
				"Province": "-",
				"District": "-"
			}
		},
		{
			"type": "Feature",
			"geometry": {
				"type": "Point",
				"coordinates": [
					32.9173,
					39.1713
				]
			},
			"properties": {
				"Network": "TU",
				"Code": "KKUL",
				"Height": 1178.0,
				"Province": "Konya",
				"District": "Kulu"
			}
		},
		{
			"type": "Feature",
			"geometry": {
				"type": "Point",
				"coordinates": [
					30.8536,
					40.8525
				]
			},
			"properties": {
				"Network": "TU",
				"Code": "SAHE",
				"Height": 481.0,
				"Province": "Sakarya",
				"District": "Hendek"
			}
		},
		{
			"type": "Feature",
			"geometry": {
				"type": "Point",
				"coordinates": [
					31.604,
					36.9015
				]
			},
			"properties": {
				"Network": "TU",
				"Code": "KEPZ",
				"Height": 615.0,
				"Province": "Antalya",
				"District": "Akseki"
			}
		},
		{
			"type": "Feature",
			"geometry": {
				"type": "Point",
				"coordinates": [
					32.368,
					37.7685
				]
			},
			"properties": {
				"Network": "TU",
				"Code": "KMER",
				"Height": 1231.0,
				"Province": "Konya",
				"District": "Meram"
			}
		},
		{
			"type": "Feature",
			"geometry": {
				"type": "Point",
				"coordinates": [
					40.6711,
					38.9881
				]
			},
			"properties": {
				"Network": "TU",
				"Code": "BGOL",
				"Height": 1166.0,
				"Province": "Bingöl",
				"District": "Merkez"
			}
		},
		{
			"type": "Feature",
			"geometry": {
				"type": "Point",
				"coordinates": [
					32.2504,
					41.6361
				]
			},
			"properties": {
				"Network": "TU",
				"Code": "BTIN",
				"Height": 233.0,
				"Province": "Bartın",
				"District": "Merkez"
			}
		},
		{
			"type": "Feature",
			"geometry": {
				"type": "Point",
				"coordinates": [
					33.7607,
					38.6497
				]
			},
			"properties": {
				"Network": "TU",
				"Code": "AKSY",
				"Height": 973.0,
				"Province": "Aksaray",
				"District": "Merkez"
			}
		},
		{
			"type": "Feature",
			"geometry": {
				"type": "Point",
				"coordinates": [
					35.363,
					38.0947
				]
			},
			"properties": {
				"Network": "TU",
				"Code": "YAHY",
				"Height": 1230.0,
				"Province": "Kayseri",
				"District": "Yahyalı"
			}
		},
		{
			"type": "Feature",
			"geometry": {
				"type": "Point",
				"coordinates": [
					34.7914,
					40.6478
				]
			},
			"properties": {
				"Network": "TU",
				"Code": "CTAK",
				"Height": 1775.0,
				"Province": "Çorum",
				"District": "Merkez"
			}
		},
		{
			"type": "Feature",
			"geometry": {
				"type": "Point",
				"coordinates": [
					44.0104,
					38.0474
				]
			},
			"properties": {
				"Network": "TU",
				"Code": "BASK",
				"Height": 2412.0,
				"Province": "Van",
				"District": "Başkale"
			}
		},
		{
			"type": "Feature",
			"geometry": {
				"type": "Point",
				"coordinates": [
					43.9172,
					39.144
				]
			},
			"properties": {
				"Network": "KO",
				"Code": "CLDR",
				"Height": 2094.0,
				"Province": "Van",
				"District": "Çaldıran"
			}
		},
		{
			"type": "Feature",
			"geometry": {
				"type": "Point",
				"coordinates": [
					43.6077,
					37.2473
				]
			},
			"properties": {
				"Network": "KO",
				"Code": "CUKT",
				"Height": 1298.0,
				"Province": "Hakkari",
				"District": "Çukurca"
			}
		},
		{
			"type": "Feature",
			"geometry": {
				"type": "Point",
				"coordinates": [
					28.6532,
					36.8162
				]
			},
			"properties": {
				"Network": "KO",
				"Code": "DALY",
				"Height": 548.0,
				"Province": "Muğla",
				"District": "Ortaca"
			}
		},
		{
			"type": "Feature",
			"geometry": {
				"type": "Point",
				"coordinates": [
					27.5778,
					36.729
				]
			},
			"properties": {
				"Network": "KO",
				"Code": "DAT",
				"Height": 1100.0,
				"Province": "Muğla",
				"District": "Datça"
			}
		},
		{
			"type": "Feature",
			"geometry": {
				"type": "Point",
				"coordinates": [
					34.1742,
					35.5292
				]
			},
			"properties": {
				"Network": "KO",
				"Code": "EREN",
				"Height": 88.0,
				"Province": "-",
				"District": "-"
			}
		},
		{
			"type": "Feature",
			"geometry": {
				"type": "Point",
				"coordinates": [
					29.0835,
					36.6353
				]
			},
			"properties": {
				"Network": "KO",
				"Code": "FETY",
				"Height": 200.0,
				"Province": "Muğla",
				"District": "Fethiye"
			}
		},
		{
			"type": "Feature",
			"geometry": {
				"type": "Point",
				"coordinates": [
					32.3605,
					37.9453
				]
			},
			"properties": {
				"Network": "KO",
				"Code": "KONT",
				"Height": 550.0,
				"Province": "Konya",
				"District": "Selçuklu"
			}
		},
		{
			"type": "Feature",
			"geometry": {
				"type": "Point",
				"coordinates": [
					32.8433,
					35.1118
				]
			},
			"properties": {
				"Network": "KO",
				"Code": "LEF",
				"Height": 152.0,
				"Province": "-",
				"District": "-"
			}
		},
		{
			"type": "Feature",
			"geometry": {
				"type": "Point",
				"coordinates": [
					41.1985,
					38.1512
				]
			},
			"properties": {
				"Network": "KO",
				"Code": "SVAN",
				"Height": 0.0,
				"Province": "Diyarbakır",
				"District": "Silvan"
			}
		},
		{
			"type": "Feature",
			"geometry": {
				"type": "Point",
				"coordinates": [
					41.456,
					39.1603
				]
			},
			"properties": {
				"Network": "KO",
				"Code": "VRTB",
				"Height": 1500.0,
				"Province": "Muş",
				"District": "Varto"
			}
		},
		{
			"type": "Feature",
			"geometry": {
				"type": "Point",
				"coordinates": [
					32.475,
					40.4942
				]
			},
			"properties": {
				"Network": "TU",
				"Code": "CMDR",
				"Height": 1305.0,
				"Province": "Ankara",
				"District": "Çamlıdere"
			}
		},
		{
			"type": "Feature",
			"geometry": {
				"type": "Point",
				"coordinates": [
					30.1412,
					38.2575
				]
			},
			"properties": {
				"Network": "TU",
				"Code": "KZIL",
				"Height": 1202.0,
				"Province": "Afyonkarahisar",
				"District": "Kızılören"
			}
		},
		{
			"type": "Feature",
			"geometry": {
				"type": "Point",
				"coordinates": [
					30.0613,
					37.6963
				]
			},
			"properties": {
				"Network": "TU",
				"Code": "BRDR",
				"Height": 935.0,
				"Province": "Burdur",
				"District": "Merkez"
			}
		},
		{
			"type": "Feature",
			"geometry": {
				"type": "Point",
				"coordinates": [
					28.9132,
					37.4657
				]
			},
			"properties": {
				"Network": "TU",
				"Code": "TAVA",
				"Height": 1016.0,
				"Province": "Denizli",
				"District": "Tavas"
			}
		},
		{
			"type": "Feature",
			"geometry": {
				"type": "Point",
				"coordinates": [
					27.7183,
					39.3767
				]
			},
			"properties": {
				"Network": "TU",
				"Code": "STEP",
				"Height": 519.0,
				"Province": "Balıkesir",
				"District": "Savaştepe"
			}
		},
		{
			"type": "Feature",
			"geometry": {
				"type": "Point",
				"coordinates": [
					26.5469,
					39.7413
				]
			},
			"properties": {
				"Network": "TU",
				"Code": "BAYC",
				"Height": 349.0,
				"Province": "Çanakkale",
				"District": "Bayramiç"
			}
		},
		{
			"type": "Feature",
			"geometry": {
				"type": "Point",
				"coordinates": [
					30.2958,
					40.4842
				]
			},
			"properties": {
				"Network": "TU",
				"Code": "GEYV",
				"Height": 223.0,
				"Province": "Sakarya",
				"District": "Geyve"
			}
		},
		{
			"type": "Feature",
			"geometry": {
				"type": "Point",
				"coordinates": [
					35.2019,
					42.0184
				]
			},
			"properties": {
				"Network": "TU",
				"Code": "SINO",
				"Height": 203.0,
				"Province": "Sinop",
				"District": "Merkez"
			}
		},
		{
			"type": "Feature",
			"geometry": {
				"type": "Point",
				"coordinates": [
					31.6682,
					38.1058
				]
			},
			"properties": {
				"Network": "TU",
				"Code": "DOGA",
				"Height": 1452.0,
				"Province": "Konya",
				"District": "Doğanhisar"
			}
		},
		{
			"type": "Feature",
			"geometry": {
				"type": "Point",
				"coordinates": [
					33.5435,
					36.1836
				]
			},
			"properties": {
				"Network": "TU",
				"Code": "GULN",
				"Height": 150.0,
				"Province": "Mersin",
				"District": "Gülnar"
			}
		},
		{
			"type": "Feature",
			"geometry": {
				"type": "Point",
				"coordinates": [
					36.0823,
					37.9766
				]
			},
			"properties": {
				"Network": "TU",
				"Code": "SAIM",
				"Height": 1028.0,
				"Province": "Adana",
				"District": "Saimbeyli"
			}
		},
		{
			"type": "Feature",
			"geometry": {
				"type": "Point",
				"coordinates": [
					42.7246,
					38.808
				]
			},
			"properties": {
				"Network": "TU",
				"Code": "ADCV",
				"Height": 1774.0,
				"Province": "Bitlis",
				"District": "Adilcevaz"
			}
		},
		{
			"type": "Feature",
			"geometry": {
				"type": "Point",
				"coordinates": [
					41.9223,
					37.9911
				]
			},
			"properties": {
				"Network": "TU",
				"Code": "SRTM",
				"Height": 1145.0,
				"Province": "Siirt",
				"District": "Merkez"
			}
		},
		{
			"type": "Feature",
			"geometry": {
				"type": "Point",
				"coordinates": [
					40.3994,
					38.4147
				]
			},
			"properties": {
				"Network": "TU",
				"Code": "HANI",
				"Height": 923.0,
				"Province": "Diyarbakır",
				"District": "Hani"
			}
		},
		{
			"type": "Feature",
			"geometry": {
				"type": "Point",
				"coordinates": [
					38.9892,
					37.1712
				]
			},
			"properties": {
				"Network": "TU",
				"Code": "SANL",
				"Height": 505.0,
				"Province": "Şanlıurfa",
				"District": "Haliliye"
			}
		},
		{
			"type": "Feature",
			"geometry": {
				"type": "Point",
				"coordinates": [
					37.1327,
					38.3243
				]
			},
			"properties": {
				"Network": "TU",
				"Code": "ELBS",
				"Height": 1260.0,
				"Province": "Kahramanmaraş",
				"District": "Elbistan"
			}
		},
		{
			"type": "Feature",
			"geometry": {
				"type": "Point",
				"coordinates": [
					44.2896,
					37.5871
				]
			},
			"properties": {
				"Network": "TU",
				"Code": "YOVA",
				"Height": 1946.0,
				"Province": "Hakkari",
				"District": "Yüksekova"
			}
		},
		{
			"type": "Feature",
			"geometry": {
				"type": "Point",
				"coordinates": [
					37.9591,
					38.879
				]
			},
			"properties": {
				"Network": "TU",
				"Code": "HEKM",
				"Height": 1859.0,
				"Province": "Malatya",
				"District": "Hekimhan"
			}
		},
		{
			"type": "Feature",
			"geometry": {
				"type": "Point",
				"coordinates": [
					32.7935,
					39.8681
				]
			},
			"properties": {
				"Network": "TU",
				"Code": "ODTU",
				"Height": 1077.0,
				"Province": "Ankara",
				"District": "Çankaya"
			}
		},
		{
			"type": "Feature",
			"geometry": {
				"type": "Point",
				"coordinates": [
					44.078,
					39.8681
				]
			},
			"properties": {
				"Network": "TU",
				"Code": "IGDI",
				"Height": 860.0,
				"Province": "Iğdır",
				"District": "Merkez"
			}
		},
		{
			"type": "Feature",
			"geometry": {
				"type": "Point",
				"coordinates": [
					40.2576,
					40.2586
				]
			},
			"properties": {
				"Network": "TU",
				"Code": "BAYB",
				"Height": 2015.0,
				"Province": "Bayburt",
				"District": "Merkez"
			}
		},
		{
			"type": "Feature",
			"geometry": {
				"type": "Point",
				"coordinates": [
					44.7988,
					41.6833
				]
			},
			"properties": {
				"Network": "GO",
				"Code": "BTNK",
				"Height": 579.0,
				"Province": "-",
				"District": "-"
			}
		},
		{
			"type": "Feature",
			"geometry": {
				"type": "Point",
				"coordinates": [
					29.2628,
					39.3403
				]
			},
			"properties": {
				"Network": "TU",
				"Code": "SMV1",
				"Height": 1008.0,
				"Province": "Kütahya",
				"District": "Emet"
			}
		},
		{
			"type": "Feature",
			"geometry": {
				"type": "Point",
				"coordinates": [
					29.0244,
					39.1086
				]
			},
			"properties": {
				"Network": "TU",
				"Code": "SMV2",
				"Height": 846.0,
				"Province": "Kütahya",
				"District": "Simav"
			}
		},
		{
			"type": "Feature",
			"geometry": {
				"type": "Point",
				"coordinates": [
					29.2757,
					39.1999
				]
			},
			"properties": {
				"Network": "TU",
				"Code": "SMV3",
				"Height": 924.0,
				"Province": "Kütahya",
				"District": "Hisarcık"
			}
		},
		{
			"type": "Feature",
			"geometry": {
				"type": "Point",
				"coordinates": [
					29.1297,
					38.9966
				]
			},
			"properties": {
				"Network": "TU",
				"Code": "SMV4",
				"Height": 0.0,
				"Province": "Kütahya",
				"District": "Pazarlar"
			}
		},
		{
			"type": "Feature",
			"geometry": {
				"type": "Point",
				"coordinates": [
					29.2467,
					38.9221
				]
			},
			"properties": {
				"Network": "TU",
				"Code": "SMV5",
				"Height": 831.0,
				"Province": "Kütahya",
				"District": "Gediz"
			}
		},
		{
			"type": "Feature",
			"geometry": {
				"type": "Point",
				"coordinates": [
					29.0244,
					39.1086
				]
			},
			"properties": {
				"Network": "TU",
				"Code": "SIMV",
				"Height": 846.0,
				"Province": "Kütahya",
				"District": "Simav"
			}
		},
		{
			"type": "Feature",
			"geometry": {
				"type": "Point",
				"coordinates": [
					41.3636,
					40.1034
				]
			},
			"properties": {
				"Network": "TU",
				"Code": "AKDA",
				"Height": 1875.0,
				"Province": "Erzurum",
				"District": "Yakutiye"
			}
		},
		{
			"type": "Feature",
			"geometry": {
				"type": "Point",
				"coordinates": [
					32.627,
					41.2366
				]
			},
			"properties": {
				"Network": "TU",
				"Code": "KBUK",
				"Height": 548.0,
				"Province": "Karabük",
				"District": "Merkez"
			}
		},
		{
			"type": "Feature",
			"geometry": {
				"type": "Point",
				"coordinates": [
					33.9204,
					39.9979
				]
			},
			"properties": {
				"Network": "TU",
				"Code": "DELI",
				"Height": 1169.0,
				"Province": "Kırıkkale",
				"District": "Delice"
			}
		},
		{
			"type": "Feature",
			"geometry": {
				"type": "Point",
				"coordinates": [
					31.4485,
					40.9631
				]
			},
			"properties": {
				"Network": "TU",
				"Code": "YIGI",
				"Height": 353.0,
				"Province": "Düzce",
				"District": "Yığılca"
			}
		},
		{
			"type": "Feature",
			"geometry": {
				"type": "Point",
				"coordinates": [
					31.8524,
					40.4197
				]
			},
			"properties": {
				"Network": "TU",
				"Code": "KIBS",
				"Height": 1199.0,
				"Province": "Bolu",
				"District": "Kıbrıscık"
			}
		},
		{
			"type": "Feature",
			"geometry": {
				"type": "Point",
				"coordinates": [
					35.625,
					38.9025
				]
			},
			"properties": {
				"Network": "TU",
				"Code": "GUNE",
				"Height": 1235.0,
				"Province": "Kayseri",
				"District": "Kocasinan"
			}
		},
		{
			"type": "Feature",
			"geometry": {
				"type": "Point",
				"coordinates": [
					35.1481,
					39.3363
				]
			},
			"properties": {
				"Network": "TU",
				"Code": "SIRC",
				"Height": 1241.0,
				"Province": "Yozgat",
				"District": "Boğazlıyan"
			}
		},
		{
			"type": "Feature",
			"geometry": {
				"type": "Point",
				"coordinates": [
					27.0972,
					41.7817
				]
			},
			"properties": {
				"Network": "TU",
				"Code": "KIRK",
				"Height": 258.0,
				"Province": "Kırklareli",
				"District": "Merkez"
			}
		},
		{
			"type": "Feature",
			"geometry": {
				"type": "Point",
				"coordinates": [
					27.0771,
					38.9665
				]
			},
			"properties": {
				"Network": "TU",
				"Code": "ZEDA",
				"Height": 179.0,
				"Province": "İzmir",
				"District": "Bergama"
			}
		},
		{
			"type": "Feature",
			"geometry": {
				"type": "Point",
				"coordinates": [
					29.0181,
					38.7143
				]
			},
			"properties": {
				"Network": "TU",
				"Code": "USAK",
				"Height": 723.0,
				"Province": "Uşak",
				"District": "Merkez"
			}
		},
		{
			"type": "Feature",
			"geometry": {
				"type": "Point",
				"coordinates": [
					30.2988,
					38.7871
				]
			},
			"properties": {
				"Network": "TU",
				"Code": "AFYO",
				"Height": 1080.0,
				"Province": "Afyonkarahisar",
				"District": "Sinanpaşa"
			}
		},
		{
			"type": "Feature",
			"geometry": {
				"type": "Point",
				"coordinates": [
					30.343,
					36.3227
				]
			},
			"properties": {
				"Network": "TU",
				"Code": "AKUM",
				"Height": 70.0,
				"Province": "Antalya",
				"District": "Kumluca"
			}
		},
		{
			"type": "Feature",
			"geometry": {
				"type": "Point",
				"coordinates": [
					32.3156,
					36.2347
				]
			},
			"properties": {
				"Network": "TK",
				"Code": "0704",
				"Height": 394.0,
				"Province": "Antalya",
				"District": "Gazipaşa"
			}
		},
		{
			"type": "Feature",
			"geometry": {
				"type": "Point",
				"coordinates": [
					34.4782,
					41.1384
				]
			},
			"properties": {
				"Network": "TU",
				"Code": "KAGI",
				"Height": 448.0,
				"Province": "Çorum",
				"District": "Kargı"
			}
		},
		{
			"type": "Feature",
			"geometry": {
				"type": "Point",
				"coordinates": [
					33.3177,
					41.3005
				]
			},
			"properties": {
				"Network": "TU",
				"Code": "PELI",
				"Height": 1057.0,
				"Province": "Kastamonu",
				"District": "Araç"
			}
		},
		{
			"type": "Feature",
			"geometry": {
				"type": "Point",
				"coordinates": [
					33.9168,
					39.1329
				]
			},
			"properties": {
				"Network": "TU",
				"Code": "KIRS",
				"Height": 981.0,
				"Province": "Kırşehir",
				"District": "Merkez"
			}
		},
		{
			"type": "Feature",
			"geometry": {
				"type": "Point",
				"coordinates": [
					40.9271,
					40.3374
				]
			},
			"properties": {
				"Network": "TU",
				"Code": "KRIK",
				"Height": 2025.0,
				"Province": "Erzurum",
				"District": "İspir"
			}
		},
		{
			"type": "Feature",
			"geometry": {
				"type": "Point",
				"coordinates": [
					42.1152,
					38.4146
				]
			},
			"properties": {
				"Network": "TU",
				"Code": "BLIS",
				"Height": 1608.0,
				"Province": "Bitlis",
				"District": "Merkez"
			}
		},
		{
			"type": "Feature",
			"geometry": {
				"type": "Point",
				"coordinates": [
					41.5118,
					38.724
				]
			},
			"properties": {
				"Network": "TU",
				"Code": "MUSM",
				"Height": 1357.0,
				"Province": "Muş",
				"District": "Merkez"
			}
		},
		{
			"type": "Feature",
			"geometry": {
				"type": "Point",
				"coordinates": [
					30.6259,
					40.0416
				]
			},
			"properties": {
				"Network": "KO",
				"Code": "SRCK",
				"Height": 331.0,
				"Province": "Eskişehir",
				"District": "Sarıcakaya"
			}
		},
		{
			"type": "Feature",
			"geometry": {
				"type": "Point",
				"coordinates": [
					31.0625,
					39.3611
				]
			},
			"properties": {
				"Network": "KO",
				"Code": "CIFT",
				"Height": 892.0,
				"Province": "Eskişehir",
				"District": "Çifteler"
			}
		},
		{
			"type": "Feature",
			"geometry": {
				"type": "Point",
				"coordinates": [
					46.1183,
					41.4458
				]
			},
			"properties": {
				"Network": "GO",
				"Code": "DDFL",
				"Height": 856.0,
				"Province": "-",
				"District": "-"
			}
		},
		{
			"type": "Feature",
			"geometry": {
				"type": "Point",
				"coordinates": [
					41.6936,
					41.604
				]
			},
			"properties": {
				"Network": "GO",
				"Code": "BATM",
				"Height": 298.0,
				"Province": "-",
				"District": "-"
			}
		},
		{
			"type": "Feature",
			"geometry": {
				"type": "Point",
				"coordinates": [
					44.3987,
					41.3866
				]
			},
			"properties": {
				"Network": "GO",
				"Code": "KZRT",
				"Height": 723.0,
				"Province": "-",
				"District": "-"
			}
		},
		{
			"type": "Feature",
			"geometry": {
				"type": "Point",
				"coordinates": [
					43.0251,
					39.7176
				]
			},
			"properties": {
				"Network": "TU",
				"Code": "AGRI",
				"Height": 0.0,
				"Province": "Ağrı",
				"District": "Merkez"
			}
		},
		{
			"type": "Feature",
			"geometry": {
				"type": "Point",
				"coordinates": [
					34.1453,
					36.5869
				]
			},
			"properties": {
				"Network": "TU",
				"Code": "MERT",
				"Height": 855.0,
				"Province": "Mersin",
				"District": "Erdemli"
			}
		},
		{
			"type": "Feature",
			"geometry": {
				"type": "Point",
				"coordinates": [
					38.9844,
					38.4978
				]
			},
			"properties": {
				"Network": "TU",
				"Code": "ELZ",
				"Height": 999.0,
				"Province": "Elazığ",
				"District": "Merkez"
			}
		},
		{
			"type": "Feature",
			"geometry": {
				"type": "Point",
				"coordinates": [
					35.8347,
					40.6371
				]
			},
			"properties": {
				"Network": "TU",
				"Code": "AMSY",
				"Height": 951.0,
				"Province": "Amasya",
				"District": "Merkez"
			}
		},
		{
			"type": "Feature",
			"geometry": {
				"type": "Point",
				"coordinates": [
					40.9762,
					40.0302
				]
			},
			"properties": {
				"Network": "TU",
				"Code": "EMRE",
				"Height": 2066.0,
				"Province": "Erzurum",
				"District": "Aziziye"
			}
		},
		{
			"type": "Feature",
			"geometry": {
				"type": "Point",
				"coordinates": [
					30.3503,
					37.0007
				]
			},
			"properties": {
				"Network": "TK",
				"Code": "0707",
				"Height": 1303.0,
				"Province": "Antalya",
				"District": "Korkuteli"
			}
		},
		{
			"type": "Feature",
			"geometry": {
				"type": "Point",
				"coordinates": [
					41.3035,
					39.8337
				]
			},
			"properties": {
				"Network": "TU",
				"Code": "EJDE",
				"Height": 3151.0,
				"Province": "Erzurum",
				"District": "Palandöken"
			}
		},
		{
			"type": "Feature",
			"geometry": {
				"type": "Point",
				"coordinates": [
					32.7603,
					39.8422
				]
			},
			"properties": {
				"Network": "TU",
				"Code": "BBTK",
				"Height": 1200.0,
				"Province": "Ankara",
				"District": "Çankaya"
			}
		},
		{
			"type": "Feature",
			"geometry": {
				"type": "Point",
				"coordinates": [
					35.8095,
					37.024
				]
			},
			"properties": {
				"Network": "TK",
				"Code": "0104",
				"Height": 38.0,
				"Province": "Adana",
				"District": "Ceyhan"
			}
		},
		{
			"type": "Feature",
			"geometry": {
				"type": "Point",
				"coordinates": [
					35.3901,
					36.568
				]
			},
			"properties": {
				"Network": "TK",
				"Code": "0110",
				"Height": 22.0,
				"Province": "Adana",
				"District": "Karataş"
			}
		},
		{
			"type": "Feature",
			"geometry": {
				"type": "Point",
				"coordinates": [
					35.8202,
					37.4339
				]
			},
			"properties": {
				"Network": "TK",
				"Code": "0122",
				"Height": 119.0,
				"Province": "Adana",
				"District": "Kozan"
			}
		},
		{
			"type": "Feature",
			"geometry": {
				"type": "Point",
				"coordinates": [
					34.8791,
					37.4087
				]
			},
			"properties": {
				"Network": "TK",
				"Code": "0124",
				"Height": 791.0,
				"Province": "Adana",
				"District": "Pozantı"
			}
		},
		{
			"type": "Feature",
			"geometry": {
				"type": "Point",
				"coordinates": [
					35.3184,
					37.0362
				]
			},