[
    {
        "Network": "TU",
        "Code": "ABT",
        "Longitude": 31.3208,
        "Latitude": 40.6058,
        "Height": 1794.0,
        "Province": "Bolu",
        "District": "Mudurnu"
    },
    {
        "Network": "TU",
        "Code": "AKAS",
        "Longitude": 29.6052,
        "Latitude": 36.2326,
        "Height": 1165.0,
        "Province": "Antalya",
        "District": "Kaş"
    },
    {
        "Network": "TU",
        "Code": "AKKT",
        "Longitude": 37.0135,
        "Latitude": 40.7844,
        "Height": 1575.0,
        "Province": "Ordu",
        "District": "Akkuş"
    },
    {
        "Network": "TU",
        "Code": "ATAB",
        "Longitude": 38.2949,
        "Latitude": 37.4696,
        "Height": 551.0,
        "Province": "Şanlıurfa",
        "District": "Bozova"
    },
    {
        "Network": "TU",
        "Code": "AVNT",
        "Longitude": 34.8523,
        "Latitude": 38.7784,
        "Height": 1541.0,
        "Province": "Nevşehir",
        "District": "Avanos"
    },
    {
        "Network": "TU",
        "Code": "AYDN",
        "Longitude": 27.8792,
        "Latitude": 37.6608,
        "Height": 716.0,
        "Province": "Aydın",
        "District": "Çine"
    },
    {
        "Network": "TU",
        "Code": "BALT",
        "Longitude": 33.3858,
        "Latitude": 41.5341,
        "Height": 1746.0,
        "Province": "Kastamonu",
        "District": "Daday"
    },
    {
        "Network": "TU",
        "Code": "BDRM",
        "Longitude": 27.4435,
        "Latitude": 37.065,
        "Height": 350.0,
        "Province": "Muğla",
        "District": "Bodrum"
    },
    {
        "Network": "TU",
        "Code": "BOYT",
        "Longitude": 34.9036,
        "Latitude": 41.4206,
        "Height": 1170.0,
        "Province": "Sinop",
        "District": "Boyabat"
    },
    {
        "Network": "TU",
        "Code": "BSTP",
        "Longitude": 34.1083,
        "Latitude": 37.9505,
        "Height": 1318.0,
        "Province": "Niğde",
        "District": "Bor"
    },
    {
        "Network": "TU",
        "Code": "CDAG",
        "Longitude": 34.3719,
        "Latitude": 39.6236,
        "Height": 1136.0,
        "Province": "Kırşehir",
        "District": "Çiçekdağı"
    },
    {
        "Network": "TU",
        "Code": "COBT",
        "Longitude": 36.2556,
        "Latitude": 36.5197,
        "Height": 1710.0,
        "Province": "Hatay",
        "District": "İskenderun"
    },
    {
        "Network": "TU",
        "Code": "CTKT",
        "Longitude": 34.7896,
        "Latitude": 40.6231,
        "Height": 1650.0,
        "Province": "Çorum",
        "District": "Merkez"
    },
    {
        "Network": "TU",
        "Code": "DNZL",
        "Longitude": 29.0464,
        "Latitude": 37.6897,
        "Height": 1716.0,
        "Province": "Denizli",
        "District": "Pamukkale"
    },
    {
        "Network": "TU",
        "Code": "DVR",
        "Longitude": 32.0075,
        "Latitude": 41.1594,
        "Height": 960.0,
        "Province": "Zonguldak",
        "District": "Devrek"
    },
    {
        "Network": "TU",
        "Code": "ELDT",
        "Longitude": 33.4266,
        "Latitude": 40.4893,
        "Height": 1584.0,
        "Province": "Çankırı",
        "District": "Şabanözü"
    },
    {
        "Network": "TU",
        "Code": "ELZG",
        "Longitude": 38.9849,
        "Latitude": 38.497,
        "Height": 1640.0,
        "Province": "Elazığ",
        "District": "Merkez"
    },
    {
        "Network": "TU",
        "Code": "ERCT",
        "Longitude": 35.7883,
        "Latitude": 38.8117,
        "Height": 1905.0,
        "Province": "Kayseri",
        "District": "Melikgazi"
    },
    {
        "Network": "TU",
        "Code": "ERCT",
        "Longitude": 35.5142,
        "Latitude": 38.6031,
        "Height": 1915.0,
        "Province": "Kayseri",
        "District": "Melikgazi"
    },
    {
        "Network": "TU",
        "Code": "ERMK",
        "Longitude": 32.9113,
        "Latitude": 36.6414,
        "Height": 1855.0,
        "Province": "Karaman",
        "District": "Ermenek"
    },
    {
        "Network": "TU",
        "Code": "ERZC",
        "Longitude": 39.1183,
        "Latitude": 39.9167,
        "Height": 2810.0,
        "Province": "Erzincan",
        "District": "Refahiye"
    },
    {
        "Network": "TU",
        "Code": "ERZM",
        "Longitude": 41.3658,
        "Latitude": 39.9053,
        "Height": 2380.0,
        "Province": "Erzurum",
        "District": "Palandöken"
    },
    {
        "Network": "TU",
        "Code": "GDZ",
        "Longitude": 29.4815,
        "Latitude": 39.0874,
        "Height": 1324.0,
        "Province": "Kütahya",
        "District": "Gediz"
    },
    {
        "Network": "TU",
        "Code": "GOLH",
        "Longitude": 29.5591,
        "Latitude": 37.2365,
        "Height": 1090.0,
        "Province": "Burdur",
        "District": "Gölhisar"
    },
    {
        "Network": "TU",
        "Code": "GRSN",
        "Longitude": 38.2681,
        "Latitude": 40.9244,
        "Height": 536.0,
        "Province": "Giresun",
        "District": "Bulancak"
    },
    {
        "Network": "TU",
        "Code": "GYN",
        "Longitude": 30.7264,
        "Latitude": 40.3533,
        "Height": 1279.0,
        "Province": "Bolu",
        "District": "Göynük"
    },
    {
        "Network": "TU",
        "Code": "GZTT",
        "Longitude": 37.1375,
        "Latitude": 37.1356,
        "Height": 1496.0,
        "Province": "Gaziantep",
        "District": "Şehitkamil"
    },
    {
        "Network": "TU",
        "Code": "GZZT",
        "Longitude": 37.3458,
        "Latitude": 37.1278,
        "Height": 1209.0,
        "Province": "Gaziantep",
        "District": "Şehitkamil"
    },
    {
        "Network": "TU",
        "Code": "GZT",
        "Longitude": 37.5615,
        "Latitude": 37.3553,
        "Height": 1021.0,
        "Province": "Gaziantep",
        "District": "Yavuzeli"
    },
    {
        "Network": "TU",
        "Code": "HAKT",
        "Longitude": 43.7071,
        "Latitude": 37.5579,
        "Height": 2153.0,
        "Province": "Hakkari",
        "District": "Merkez"
    },
    {
        "Network": "TU",
        "Code": "HENT",
        "Longitude": 30.8992,
        "Latitude": 40.8231,
        "Height": 583.0,
        "Province": "Sakarya",
        "District": "Hendek"
    },
    {
        "Network": "TU",
        "Code": "KART",
        "Longitude": 34.3056,
        "Latitude": 41.1697,
        "Height": 1946.0,
        "Province": "Çorum",
        "District": "Kargı"
    },
    {
        "Network": "TU",
        "Code": "KDAG",
        "Longitude": 27.2667,
        "Latitude": 38.4028,
        "Height": 997.0,
        "Province": "İzmir",
        "District": "Bornova"
    },
    {
        "Network": "TU",
        "Code": "KDHN",
        "Longitude": 32.1143,
        "Latitude": 38.5209,
        "Height": 1118.0,
        "Province": "Konya",
        "District": "Kadınhanı"
    },
    {
        "Network": "TU",
        "Code": "KRCT",
        "Longitude": 32.8792,
        "Latitude": 41.0814,
        "Height": 1449.0,
        "Province": "Karabük",
        "District": "Ovacık"
    },
    {
        "Network": "TU",
        "Code": "MANT",
        "Longitude": 28.5579,
        "Latitude": 38.4908,
        "Height": 945.0,
        "Province": "Manisa",
        "District": "Kula"
    },
    {
        "Network": "TU",
        "Code": "MARD",
        "Longitude": 40.7776,
        "Latitude": 37.3132,
        "Height": 1290.0,
        "Province": "Mardin",
        "District": "Artuklu"
    },
    {
        "Network": "TU",
        "Code": "MLTT",
        "Longitude": 38.3617,
        "Latitude": 38.3542,
        "Height": 1170.0,
        "Province": "Malatya",
        "District": "Battalgazi"
    },
    {
        "Network": "TU",
        "Code": "MRFT",
        "Longitude": 33.4547,
        "Latitude": 40.5036,
        "Height": 1500.0,
        "Province": "Çankırı",
        "District": "Eldivan"
    },
    {
        "Network": "TU",
        "Code": "MUGL",
        "Longitude": 28.4675,
        "Latitude": 37.2075,
        "Height": 1465.0,
        "Province": "Muğla",
        "District": "Menteşe"
    },
    {
        "Network": "TU",
        "Code": "NAL",
        "Longitude": 31.3092,
        "Latitude": 40.2094,
        "Height": 1390.0,
        "Province": "Ankara",
        "District": "Nallıhan"
    },
    {
        "Network": "TU",
        "Code": "PERT",
        "Longitude": 37.7358,
        "Latitude": 41.0792,
        "Height": 480.0,
        "Province": "Ordu",
        "District": "Perşembe"
    },
    {
        "Network": "TU",
        "Code": "SEYT",
        "Longitude": 30.8538,
        "Latitude": 39.5236,
        "Height": 1172.0,
        "Province": "Eskişehir",
        "District": "Seyitgazi"
    },
    {
        "Network": "TU",
        "Code": "SGKT",
        "Longitude": 32.0561,
        "Latitude": 40.5733,
        "Height": 1890.0,
        "Province": "Bolu",
        "District": "Dörtdivan"
    },
    {
        "Network": "TU",
        "Code": "SVST",
        "Longitude": 36.9528,
        "Latitude": 39.7722,
        "Height": 1665.0,
        "Province": "Sivas",
        "District": "Merkez"
    },
    {
        "Network": "TU",
        "Code": "TDAG",
        "Longitude": 27.5344,
        "Latitude": 40.9903,
        "Height": 148.0,
        "Province": "Tekirdağ",
        "District": "Süleymanpaşa"
    },
    {
        "Network": "TU",
        "Code": "SART",
        "Longitude": 27.1777,
        "Latitude": 40.6876,
        "Height": 680.0,
        "Province": "Tekirdağ",
        "District": "Şarköy"
    },
    {
        "Network": "TU",
        "Code": "TKTP",
        "Longitude": 30.32,
        "Latitude": 38.04,
        "Height": 1788.0,
        "Province": "Isparta",
        "District": "Keçiborlu"
    },
    {
        "Network": "TU",
        "Code": "TRHT",
        "Longitude": 36.1778,
        "Latitude": 40.3497,
        "Height": 1190.0,
        "Province": "Tokat",
        "District": "Turhal"
    },
    {
        "Network": "TU",
        "Code": "ULDT",
        "Longitude": 29.1357,
        "Latitude": 40.1416,
        "Height": 1720.0,
        "Province": "Bursa",
        "District": "Yıldırım"
    },
    {
        "Network": "TU",
        "Code": "URLA",
        "Longitude": 26.5956,
        "Latitude": 38.3602,
        "Height": 495.0,
        "Province": "İzmir",
        "District": "Urla"
    },
    {
        "Network": "TU",
        "Code": "TVAN",
        "Longitude": 43.4044,
        "Latitude": 38.5235,
        "Height": 1970.0,
        "Province": "Van",
        "District": "Tuşba"
    },
    {
        "Network": "TU",
        "Code": "YAMN",
        "Longitude": 27.1575,
        "Latitude": 38.5531,
        "Height": 997.0,
        "Province": "İzmir",
        "District": "Menemen"
    },
    {
        "Network": "TU",
        "Code": "BEST",
        "Longitude": 41.27,
        "Latitude": 37.8911,
        "Height": 959.0,
        "Province": "Batman",
        "District": "Beşiri"
    },
    {
        "Network": "TU",
        "Code": "BOZC",
        "Longitude": 26.0528,
        "Latitude": 39.8417,
        "Height": 202.0,
        "Province": "Çanakkale",
        "District": "Bozcaada"
    },
    {
        "Network": "TU",
        "Code": "AYVA",
        "Longitude": 26.69,
        "Latitude": 39.3077,
        "Height": 100.0,
        "Province": "Balıkesir",
        "District": "Ayvalık"
    },
    {
        "Network": "TU",
        "Code": "BTOK",
        "Longitude": 28.0311,
        "Latitude": 39.7617,
        "Height": 407.0,
        "Province": "Balıkesir",
        "District": "Altıeylül"
    },
    {
        "Network": "TU",
        "Code": "KELT",
        "Longitude": 39.2556,
        "Latitude": 40.1486,
        "Height": 1912.0,
        "Province": "Gümüşhane",
        "District": "Şiran"
    },
    {
        "Network": "TU",
        "Code": "KAHT",
        "Longitude": 36.8734,
        "Latitude": 37.6307,
        "Height": 1830.0,
        "Province": "Kahramanmaraş",
        "District": "Onikişubat"
    },
    {
        "Network": "TU",
        "Code": "MEST",
        "Longitude": 34.145,
        "Latitude": 36.587,
        "Height": 855.0,
        "Province": "Mersin",
        "District": "Erdemli"
    },
    {
        "Network": "TU",
        "Code": "BNGL",
        "Longitude": 41.1499,
        "Latitude": 38.9521,
        "Height": 1968.0,
        "Province": "Bingöl",
        "District": "Solhan"
    },
    {
        "Network": "TU",
        "Code": "DIGO",
        "Longitude": 43.3742,
        "Latitude": 40.4147,
        "Height": 2278.0,
        "Province": "Kars",
        "District": "Digor"
    },
    {
        "Network": "TU",
        "Code": "ARTV",
        "Longitude": 41.9283,
        "Latitude": 41.1849,
        "Height": 2034.0,
        "Province": "Artvin",
        "District": "Merkez"
    },
    {
        "Network": "TU",
        "Code": "MACK",
        "Longitude": 39.7686,
        "Latitude": 40.9432,
        "Height": 611.0,
        "Province": "Trabzon",
        "District": "Ortahisar"
    },
    {
        "Network": "TU",
        "Code": "BORA",
        "Longitude": 30.4534,
        "Latitude": 39.8801,
        "Height": 960.0,
        "Province": "Eskişehir",
        "District": "Tepebaşı"
    },
    {
        "Network": "TU",
        "Code": "ELBA",
        "Longitude": 28.4307,
        "Latitude": 41.1469,
        "Height": 331.0,
        "Province": "İstanbul",
        "District": "Çatalca"
    },
    {
        "Network": "TU",
        "Code": "AKHS",
        "Longitude": 27.8138,
        "Latitude": 38.8788,
        "Height": 370.0,
        "Province": "Manisa",
        "District": "Akhisar"
    },
    {
        "Network": "TU",
        "Code": "DYDN",
        "Longitude": 43.6889,
        "Latitude": 39.5436,
        "Height": 2010.0,
        "Province": "Ağrı",
        "District": "Diyadin"
    },
    {
        "Network": "TU",
        "Code": "TUTA",
        "Longitude": 42.8137,
        "Latitude": 39.4019,
        "Height": 2154.0,
        "Province": "Ağrı",
        "District": "Tutak"
    },
    {
        "Network": "TU",
        "Code": "HOMI",
        "Longitude": 41.9048,
        "Latitude": 40.0451,
        "Height": 2166.0,
        "Province": "Erzurum",
        "District": "Köprüköy"
    },
    {
        "Network": "TU",
        "Code": "KOPT",
        "Longitude": 40.4972,
        "Latitude": 40.0179,
        "Height": 2489.0,
        "Province": "Erzurum",
        "District": "Aşkale"
    },
    {
        "Network": "TU",
        "Code": "ANDN",
        "Longitude": 36.3453,
        "Latitude": 37.58,
        "Height": 1142.0,
        "Province": "Kahramanmaraş",
        "District": "Andırın"
    },
    {
        "Network": "TU",
        "Code": "KEMA",
        "Longitude": 38.4932,
        "Latitude": 39.2688,
        "Height": 1026.0,
        "Province": "Erzincan",
        "District": "Kemaliye"
    },
    {
        "Network": "TU",
        "Code": "PINB",
        "Longitude": 36.4027,
        "Latitude": 38.6769,
        "Height": 2288.0,
        "Province": "Kayseri",
        "District": "Pınarbaşı"
    },
    {
        "Network": "TU",
        "Code": "TATV",
        "Longitude": 42.2672,
        "Latitude": 38.58,
        "Height": 1831.0,
        "Province": "Bitlis",
        "District": "Tatvan"
    },
    {
        "Network": "TU",
        "Code": "YAYL",
        "Longitude": 36.107,
        "Latitude": 36.0343,
        "Height": 1225.0,
        "Province": "Hatay",
        "District": "Yayladağı"
    },
    {
        "Network": "TU",
        "Code": "GULE",
        "Longitude": 34.7765,
        "Latitude": 37.2837,
        "Height": 1625.0,
        "Province": "Mersin",
        "District": "Tarsus"
    },
    {
        "Network": "TU",
        "Code": "DIYA",
        "Longitude": 40.1208,
        "Latitude": 37.9234,
        "Height": 838.0,
        "Province": "Diyarbakır",
        "District": "Kayapınar"
    },
    {
        "Network": "TU",
        "Code": "YURE",
        "Longitude": 35.6324,
        "Latitude": 36.8259,
        "Height": 491.0,
        "Province": "Adana",
        "District": "Yüreğir"
    },
    {
        "Network": "TU",
        "Code": "AKCD",
        "Longitude": 37.9224,
        "Latitude": 38.2956,
        "Height": 1376.0,
        "Province": "Malatya",
        "District": "Akçadağ"
    },
    {
        "Network": "TU",
        "Code": "BALY",
        "Longitude": 27.6195,
        "Latitude": 39.7403,
        "Height": 645.0,
        "Province": "Balıkesir",
        "District": "Balya"
    },
    {
        "Network": "TU",
        "Code": "BOLV",
        "Longitude": 30.9502,
        "Latitude": 38.7183,
        "Height": 1303.0,
        "Province": "Afyonkarahisar",
        "District": "Bolvadin"
    },
    {
        "Network": "TU",
        "Code": "DURS",
        "Longitude": 28.4742,
        "Latitude": 39.6011,
        "Height": 960.0,
        "Province": "Balıkesir",
        "District": "Dursunbey"
    },
    {
        "Network": "TU",
        "Code": "KHAL",
        "Longitude": 29.4914,
        "Latitude": 38.3704,
        "Height": 1130.0,
        "Province": "Uşak",
        "District": "Karahallı"
    },
    {
        "Network": "TU",
        "Code": "DEMI",
        "Longitude": 28.7162,
        "Latitude": 39.0428,
        "Height": 920.0,
        "Province": "Manisa",
        "District": "Demirci"
    },
    {
        "Network": "TU",
        "Code": "GCAM",
        "Longitude": 27.2418,
        "Latitude": 37.7139,
        "Height": 38.0,
        "Province": "Aydın",
        "District": "Kuşadası"
    },
    {
        "Network": "TU",
        "Code": "TURN",
        "Longitude": 28.2444,
        "Latitude": 36.7753,
        "Height": 28.0,
        "Province": "Muğla",
        "District": "Marmaris"
    },
    {
        "Network": "TU",
        "Code": "ILGA",
        "Longitude": 33.7165,
        "Latitude": 41.0521,
        "Height": 2069.0,
        "Province": "Çankırı",
        "District": "Ilgaz"
    },
    {
        "Network": "TU",
        "Code": "DBOC",
        "Longitude": 41.6667,
        "Latitude": 41.3452,
        "Height": 578.0,
        "Province": "Artvin",
        "District": "Borçka"
    },
    {
        "Network": "TU",
        "Code": "DAGI",
        "Longitude": 41.9142,
        "Latitude": 41.0778,
        "Height": 1188.0,
        "Province": "Artvin",
        "District": "Merkez"
    },
    {
        "Network": "TU",
        "Code": "DBAD",
        "Longitude": 41.6947,
        "Latitude": 41.0183,
        "Height": 1139.0,
        "Province": "Artvin",
        "District": "Yusufeli"
    },
    {
        "Network": "TU",
        "Code": "DDEM",
        "Longitude": 41.7537,
        "Latitude": 40.8925,
        "Height": 1425.0,
        "Province": "Artvin",
        "District": "Yusufeli"
    },
    {
        "Network": "TU",
        "Code": "KUZU",
        "Longitude": 37.075,
        "Latitude": 36.7735,
        "Height": 701.0,
        "Province": "Kilis",
        "District": "Merkez"
    },
    {
        "Network": "TU",
        "Code": "TOKA",
        "Longitude": 36.4783,
        "Latitude": 40.3232,
        "Height": 679.0,
        "Province": "Tokat",
        "District": "Merkez"
    },
    {
        "Network": "TU",
        "Code": "BALAT",
        "Longitude": 33.1198,
        "Latitude": 39.5561,
        "Height": 1301.0,
        "Province": "Ankara",
        "District": "Bala"
    },
    {
        "Network": "TU",
        "Code": "BBAL",
        "Longitude": 33.123,
        "Latitude": 39.5427,
        "Height": 1312.0,
        "Province": "Ankara",
        "District": "Bala"
    },
    {
        "Network": "TU",
        "Code": "KORT",
        "Longitude": 30.3503,
        "Latitude": 37.0007,
        "Height": 1304.0,
        "Province": "Antalya",
        "District": "Korkuteli"
    },
    {
        "Network": "TU",
        "Code": "GAZI",
        "Longitude": 32.3157,
        "Latitude": 36.2347,
        "Height": 394.0,
        "Province": "Antalya",
        "District": "Gazipaşa"
    },
    {
        "Network": "TU",
        "Code": "ERBA",
        "Longitude": 36.7547,
        "Latitude": 40.6814,
        "Height": 655.0,
        "Province": "Tokat",
        "District": "Erbaa"
    },
    {
        "Network": "TU",
        "Code": "SUSE",
        "Longitude": 38.2025,
        "Latitude": 40.2086,
        "Height": 1586.0,
        "Province": "Sivas",
        "District": "Suşehri"
    },
    {
        "Network": "TU",
        "Code": "SCER",
        "Longitude": 37.1286,
        "Latitude": 39.8613,
        "Height": 1428.0,
        "Province": "Sivas",
        "District": "Merkez"
    },
    {
        "Network": "TU",
        "Code": "GEVA",
        "Longitude": 43.0586,
        "Latitude": 38.3122,
        "Height": 1672.0,
        "Province": "Van",
        "District": "Gevaş"
    },
    {
        "Network": "TU",
        "Code": "SIRN",
        "Longitude": 42.413,
        "Latitude": 37.4962,
        "Height": 968.0,
        "Province": "Şırnak",
        "District": "Merkez"
    },
    {
        "Network": "TU",
        "Code": "KAST",
        "Longitude": 33.9286,
        "Latitude": 41.4904,
        "Height": 677.0,
        "Province": "Kastamonu",
        "District": "Merkez"
    },
    {
        "Network": "TU",
        "Code": "HAVZ",
        "Longitude": 35.718,
        "Latitude": 41.0743,
        "Height": 575.0,
        "Province": "Samsun",
        "District": "Havza"
    },
    {
        "Network": "TU",
        "Code": "EUZM",
        "Longitude": 39.6975,
        "Latitude": 39.7073,
        "Height": 1250.0,
        "Province": "Erzincan",
        "District": "Üzümlü"
    },
    {
        "Network": "TU",
        "Code": "PALU",
        "Longitude": 39.9293,
        "Latitude": 38.6943,
        "Height": 100.0,
        "Province": "Elazığ",
        "District": "Palu"
    },
    {
        "Network": "TU",
        "Code": "KIZK",
        "Longitude": 34.1437,
        "Latitude": 36.4803,
        "Height": 165.0,
        "Province": "Mersin",
        "District": "Erdemli"
    },
    {
        "Network": "TU",
        "Code": "EKAR",
        "Longitude": 42.064,
        "Latitude": 39.2559,
        "Height": 2129.0,
        "Province": "Erzurum",
        "District": "Karaçoban"
    },
    {
        "Network": "TU",
        "Code": "EPOS",
        "Longitude": 42.7279,
        "Latitude": 41.5035,
        "Height": 1499.0,
        "Province": "Ardahan",
        "District": "Posof"
    },
    {
        "Network": "TU",
        "Code": "EAK",
        "Longitude": 43.6073,
        "Latitude": 40.736,
        "Height": 1605.0,
        "Province": "Kars",
        "District": "Akyaka"
    },
    {
        "Network": "TU",
        "Code": "EATA",
        "Longitude": 42.4916,
        "Latitude": 39.8622,
        "Height": 2770.0,
        "Province": "Ağrı",
        "District": "Eleşkirt"
    },
    {
        "Network": "TU",
        "Code": "KAMA",
        "Longitude": 36.6677,
        "Latitude": 37.1861,
        "Height": 983.0,
        "Province": "Osmaniye",
        "District": "Bahçe"
    },
    {
        "Network": "TU",
        "Code": "DAD",
        "Longitude": 32.7534,
        "Latitude": 39.9081,
        "Height": 864.0,
        "Province": "Ankara",
        "District": "Çankaya"
    },
    {
        "Network": "TU",
        "Code": "BALA",
        "Longitude": 33.1198,
        "Latitude": 39.5561,
        "Height": 1301.0,
        "Province": "Ankara",
        "District": "Bala"
    },
    {
        "Network": "TU",
        "Code": "BTAS",
        "Longitude": 30.9999,
        "Latitude": 40.5706,
        "Height": 732.0,
        "Province": "Bolu",
        "District": "Mudurnu"
    },
    {
        "Network": "TU",
        "Code": "BCAM",
        "Longitude": 32.0656,
        "Latitude": 40.8158,
        "Height": 1207.0,
        "Province": "Bolu",
        "District": "Yeniçağa"
    },
    {
        "Network": "TK",
        "Code": "3801",
        "Longitude": 35.4999,
        "Latitude": 38.6896,
        "Height": 1096.0,
        "Province": "Kayseri",
        "District": "Melikgazi"
    },
    {
        "Network": "TK",
        "Code": "5102",
        "Longitude": 34.673,
        "Latitude": 37.9678,
        "Height": 1229.0,
        "Province": "Niğde",
        "District": "Merkez"
    },
    {
        "Network": "TU",
        "Code": "ISPR",
        "Longitude": 41.008,
        "Latitude": 40.4873,
        "Height": 1200.0,
        "Province": "Erzurum",
        "District": "İspir"
    },
    {
        "Network": "TU",
        "Code": "BAGO",
        "Longitude": 30.7886,
        "Latitude": 37.9905,
        "Height": 958.0,
        "Province": "Isparta",
        "District": "Eğirdir"
    },
    {
        "Network": "TU",
        "Code": "CUALT",
        "Longitude": 36.7526,
        "Latitude": 39.2734,
        "Height": 1471.0,
        "Province": "Sivas",
        "District": "Altınyayla"
    },
    {
        "Network": "TU",
        "Code": "CUKAN",
        "Longitude": 37.4667,
        "Latitude": 39.3163,
        "Height": 1523.0,
        "Province": "Sivas",
        "District": "Kangal"
    },
    {
        "Network": "TU",
        "Code": "CUGUR",
        "Longitude": 37.2719,
        "Latitude": 38.7237,
        "Height": 1401.0,
        "Province": "Sivas",
        "District": "Gürün"
    },
    {
        "Network": "TU",
        "Code": "CUSAR",
        "Longitude": 36.2444,
        "Latitude": 39.4185,
        "Height": 1458.0,
        "Province": "Sivas",
        "District": "Şarkışla"
    },
    {
        "Network": "TU",
        "Code": "ECAT",
        "Longitude": 40.9742,
        "Latitude": 39.6062,
        "Height": 1910.0,
        "Province": "Erzurum",
        "District": "Çat"
    },
    {
        "Network": "TU",
        "Code": "CAYS",
        "Longitude": 30.4315,
        "Latitude": 40.6665,
        "Height": 290.0,
        "Province": "Sakarya",
        "District": "Erenler"
    },
    {
        "Network": "TU",
        "Code": "ASA",
        "Longitude": 30.7199,
        "Latitude": 40.6915,
        "Height": 230.0,
        "Province": "Sakarya",
        "District": "Hendek"
    },
    {
        "Network": "TU",
        "Code": "TAS",
        "Longitude": 30.6147,
        "Latitude": 40.6006,
        "Height": 400.0,
        "Province": "Sakarya",
        "District": "Akyazı"
    },
    {
        "Network": "TU",
        "Code": "YUT",
        "Longitude": 30.6001,
        "Latitude": 40.8978,
        "Height": 150.0,
        "Province": "Sakarya",
        "District": "Hendek"
    },
    {
        "Network": "TU",
        "Code": "DOK",
        "Longitude": 30.8467,
        "Latitude": 40.5579,
        "Height": 635.0,
        "Province": "Sakarya",
        "District": "Akyazı"
    },
    {
        "Network": "TU",
        "Code": "KAR",
        "Longitude": 30.2065,
        "Latitude": 40.927,
        "Height": 260.0,
        "Province": "Kocaeli",
        "District": "İzmit"
    },
    {
        "Network": "TU",
        "Code": "OFL",
        "Longitude": 30.3771,
        "Latitude": 40.9573,
        "Height": 350.0,
        "Province": "Sakarya",
        "District": "Kaynarca"
    },
    {
        "Network": "TU",
        "Code": "ESE",
        "Longitude": 30.2275,
        "Latitude": 40.7729,
        "Height": 437.0,
        "Province": "Kocaeli",
        "District": "Kartepe"
    },
    {
        "Network": "TU",
        "Code": "CND",
        "Longitude": 31.1771,
        "Latitude": 40.7445,
        "Height": 950.0,
        "Province": "Düzce",
        "District": "Merkez"
    },
    {
        "Network": "TU",
        "Code": "EKI",
        "Longitude": 31.0412,
        "Latitude": 40.544,
        "Height": 890.0,
        "Province": "Bolu",
        "District": "Mudurnu"
    },
    {
        "Network": "TU",
        "Code": "CIN",
        "Longitude": 30.3057,
        "Latitude": 40.436,
        "Height": 1100.0,
        "Province": "Sakarya",
        "District": "Geyve"
    },
    {
        "Network": "TU",
        "Code": "HEN",
        "Longitude": 30.8986,
        "Latitude": 40.8214,
        "Height": 590.0,
        "Province": "Sakarya",
        "District": "Hendek"
    },
    {
        "Network": "TU",
        "Code": "GOK",
        "Longitude": 31.1453,
        "Latitude": 40.6052,
        "Height": 1090.0,
        "Province": "Bolu",
        "District": "Mudurnu"
    },
    {
        "Network": "TU",
        "Code": "AKC",
        "Longitude": 31.2089,
        "Latitude": 40.9723,
        "Height": 680.0,
        "Province": "Düzce",
        "District": "Merkez"
    },
    {
        "Network": "TU",
        "Code": "NEV",
        "Longitude": 27.263,
        "Latitude": 39.954,
        "Height": 329.0,
        "Province": "Çanakkale",
        "District": "Yenice"
    },
    {
        "Network": "TB",
        "Code": "GBZM",
        "Longitude": 29.4501,
        "Latitude": 40.7866,
        "Height": 270.0,
        "Province": "Kocaeli",
        "District": "Gebze"
    },
    {
        "Network": "TB",
        "Code": "KMR",
        "Longitude": 27.069,
        "Latitude": 40.418,
        "Height": 40.0,
        "Province": "Çanakkale",
        "District": "Biga"
    },
    {
        "Network": "TB",
        "Code": "BOZ",
        "Longitude": 28.782,
        "Latitude": 40.534,
        "Height": 119.0,
        "Province": "Yalova",
        "District": "Armutlu"
    },
    {
        "Network": "TU",
        "Code": "ERE",
        "Longitude": 28.8913,
        "Latitude": 40.0453,
        "Height": 657.0,
        "Province": "Bursa",
        "District": "Orhaneli"
    },
    {
        "Network": "TB",
        "Code": "IGD",
        "Longitude": 29.2015,
        "Latitude": 40.2641,
        "Height": 165.0,
        "Province": "Bursa",
        "District": "Gürsu"
    },
    {
        "Network": "TB",
        "Code": "KRC",
        "Longitude": 28.3323,
        "Latitude": 40.2625,
        "Height": 443.0,
        "Province": "Bursa",
        "District": "Karacabey"
    },
    {
        "Network": "TB",
        "Code": "YNK",
        "Longitude": 27.3967,
        "Latitude": 40.8258,
        "Height": 370.0,
        "Province": "Tekirdağ",
        "District": "Süleymanpaşa"
    },
    {
        "Network": "TU",
        "Code": "SNL",
        "Longitude": 28.2092,
        "Latitude": 41.2288,
        "Height": 173.0,
        "Province": "İstanbul",
        "District": "Silivri"
    },
    {
        "Network": "TB",
        "Code": "KKZ",
        "Longitude": 27.3448,
        "Latitude": 41.1269,
        "Height": 143.0,
        "Province": "Tekirdağ",
        "District": "Süleymanpaşa"
    },
    {
        "Network": "TB",
        "Code": "MAR",
        "Longitude": 27.9617,
        "Latitude": 40.967,
        "Height": 41.0,
        "Province": "Tekirdağ",
        "District": "Marmaraereğlisi"
    },
    {
        "Network": "TB",
        "Code": "KNL",
        "Longitude": 27.5261,
        "Latitude": 40.2707,
        "Height": 178.0,
        "Province": "Balıkesir",
        "District": "Gönen"
    },
    {
        "Network": "TB",
        "Code": "ESKM",
        "Longitude": 28.9455,
        "Latitude": 40.6069,
        "Height": 96.0,
        "Province": "Yalova",
        "District": "Çınarcık"
    },
    {
        "Network": "TB",
        "Code": "MADM",
        "Longitude": 27.6647,
        "Latitude": 40.6538,
        "Height": 40.0,
        "Province": "Balıkesir",
        "District": "Marmara"
    },
    {
        "Network": "TB",
        "Code": "KVK",
        "Longitude": 26.8877,
        "Latitude": 40.6041,
        "Height": 75.0,
        "Province": "Çanakkale",
        "District": "Gelibolu"
    },
    {
        "Network": "TB",
        "Code": "TRNM",
        "Longitude": 27.7786,
        "Latitude": 40.5057,
        "Height": 80.0,
        "Province": "Balıkesir",
        "District": "Erdek"
    },
    {
        "Network": "TB",
        "Code": "SGTM",
        "Longitude": 27.1081,
        "Latitude": 40.767,
        "Height": 295.0,
        "Province": "Tekirdağ",
        "District": "Malkara"
    },
    {
        "Network": "TB",
        "Code": "MSDM",
        "Longitude": 28.6,
        "Latitude": 40.3495,
        "Height": 201.0,
        "Province": "Bursa",
        "District": "Mudanya"
    },
    {
        "Network": "TB",
        "Code": "SLV",
        "Longitude": 28.1403,
        "Latitude": 41.0731,
        "Height": 30.0,
        "Province": "İstanbul",
        "District": "Silivri"
    },
    {
        "Network": "TB",
        "Code": "ATI",
        "Longitude": 27.5633,
        "Latitude": 40.083,
        "Height": 230.0,
        "Province": "Balıkesir",
        "District": "Gönen"
    },
    {
        "Network": "TB",
        "Code": "BUY",
        "Longitude": 29.1175,
        "Latitude": 40.8526,
        "Height": 231.0,
        "Province": "İstanbul",
        "District": "Adalar"
    },
    {
        "Network": "TU",
        "Code": "CAM",
        "Longitude": 27.3125,
        "Latitude": 38.7484,
        "Height": 279.0,
        "Province": "Manisa",
        "District": "Yunusemre"
    },
    {
        "Network": "TU",
        "Code": "DGB",
        "Longitude": 26.8826,
        "Latitude": 38.0521,
        "Height": 22.0,
        "Province": "İzmir",
        "District": "Seferihisar"
    },
    {
        "Network": "TU",
        "Code": "BBD",
        "Longitude": 28.8528,
        "Latitude": 37.8019,
        "Height": 888.0,
        "Province": "Denizli",
        "District": "Babadağ"
    },
    {
        "Network": "TU",
        "Code": "BLN",
        "Longitude": 27.8219,
        "Latitude": 38.6349,
        "Height": 348.0,
        "Province": "Manisa",
        "District": "Saruhanlı"
    },
    {
        "Network": "TU",
        "Code": "CVD",
        "Longitude": 28.1066,
        "Latitude": 37.7522,
        "Height": 386.0,
        "Province": "Aydın",
        "District": "Yenipazar"
    },
    {
        "Network": "TU",
        "Code": "HAR",
        "Longitude": 28.7992,
        "Latitude": 38.3411,
        "Height": 901.0,
        "Province": "Uşak",
        "District": "Eşme"
    },
    {
        "Network": "TU",
        "Code": "YAK",
        "Longitude": 27.3235,
        "Latitude": 38.515,
        "Height": 484.0,
        "Province": "İzmir",
        "District": "Bornova"
    },
    {
        "Network": "TU",
        "Code": "YEN",
        "Longitude": 27.9487,
        "Latitude": 38.4058,
        "Height": 928.0,
        "Province": "Manisa",
        "District": "Salihli"
    },
    {
        "Network": "TU",
        "Code": "KON",
        "Longitude": 28.5716,
        "Latitude": 38.465,
        "Height": 606.0,
        "Province": "Manisa",
        "District": "Kula"
    },
    {
        "Network": "TU",
        "Code": "KTT",
        "Longitude": 28.093,
        "Latitude": 38.6883,
        "Height": 493.0,
        "Province": "Manisa",
        "District": "Salihli"
    },
    {
        "Network": "TU",
        "Code": "UZP",
        "Longitude": 29.1746,
        "Latitude": 38.0313,
        "Height": 1203.0,
        "Province": "Denizli",
        "District": "Pamukkale"
    },
    {
        "Network": "TU",
        "Code": "KRB",
        "Longitude": 28.4235,
        "Latitude": 38.1342,
        "Height": 823.0,
        "Province": "İzmir",
        "District": "Kiraz"
    },
    {
        "Network": "TU",
        "Code": "SUL",
        "Longitude": 28.7676,
        "Latitude": 38.0536,
        "Height": 1194.0,
        "Province": "Denizli",
        "District": "Buldan"
    },
    {
        "Network": "TU",
        "Code": "YNC",
        "Longitude": 28.5726,
        "Latitude": 37.8139,
        "Height": 248.0,
        "Province": "Aydın",
        "District": "Karacasu"
    },
    {
        "Network": "TU",
        "Code": "DUV",
        "Longitude": 27.4491,
        "Latitude": 38.22,
        "Height": 246.0,
        "Province": "İzmir",
        "District": "Torbalı"
    },
    {
        "Network": "TU",
        "Code": "BEY",
        "Longitude": 26.9271,
        "Latitude": 38.227,
        "Height": 336.0,
        "Province": "İzmir",
        "District": "Seferihisar"
    },
    {
        "Network": "TU",
        "Code": "DAG",
        "Longitude": 27.7508,
        "Latitude": 38.004,
        "Height": 654.0,
        "Province": "İzmir",
        "District": "Tire"
    },
    {
        "Network": "TU",
        "Code": "ZEY",
        "Longitude": 26.5033,
        "Latitude": 38.2389,
        "Height": 76.0,
        "Province": "İzmir",
        "District": "Urla"
    },
    {
        "Network": "TU",
        "Code": "BAG",
        "Longitude": 26.8519,
        "Latitude": 38.6554,
        "Height": 89.0,
        "Province": "İzmir",
        "District": "Foça"
    },
    {
        "Network": "TU",
        "Code": "CKO",
        "Longitude": 35.367,
        "Latitude": 37.0625,
        "Height": 135.0,
        "Province": "Adana",
        "District": "Sarıçam"
    },
    {
        "Network": "TU",
        "Code": "DED",
        "Longitude": 34.7993,
        "Latitude": 36.9614,
        "Height": 479.0,
        "Province": "Mersin",
        "District": "Tarsus"
    },
    {
        "Network": "TU",
        "Code": "IMO",
        "Longitude": 35.6438,
        "Latitude": 37.2923,
        "Height": 128.0,
        "Province": "Adana",
        "District": "İmamoğlu"
    },
    {
        "Network": "TU",
        "Code": "DRY",
        "Longitude": 36.2496,
        "Latitude": 36.8386,
        "Height": 187.0,
        "Province": "Hatay",
        "District": "Dörtyol"
    },
    {
        "Network": "TU",
        "Code": "NUR",
        "Longitude": 36.7569,
        "Latitude": 37.1712,
        "Height": 570.0,
        "Province": "Gaziantep",
        "District": "Nurdağı"
    },
    {
        "Network": "TU",
        "Code": "AKO",
        "Longitude": 35.446,
        "Latitude": 37.4615,
        "Height": 450.0,
        "Province": "Adana",
        "District": "Aladağ"
    },
    {
        "Network": "TU",
        "Code": "KRT",
        "Longitude": 36.2232,
        "Latitude": 37.2595,
        "Height": 636.0,
        "Province": "Osmaniye",
        "District": "Kadirli"
    },
    {
        "Network": "TU",
        "Code": "GZY",
        "Longitude": 36.154,
        "Latitude": 36.487,
        "Height": 883.0,
        "Province": "Hatay",
        "District": "Belen"
    },
    {
        "Network": "TU",
        "Code": "REY",
        "Longitude": 36.5988,
        "Latitude": 36.2597,
        "Height": 250.0,
        "Province": "Hatay",
        "District": "Reyhanlı"
    },
    {
        "Network": "TU",
        "Code": "KHM",
        "Longitude": 36.9909,
        "Latitude": 37.5234,
        "Height": 614.0,
        "Province": "Kahramanmaraş",
        "District": "Dulkadiroğlu"
    },
    {
        "Network": "TU",
        "Code": "KAH",
        "Longitude": 38.6101,
        "Latitude": 37.8053,
        "Height": 766.0,
        "Province": "Adıyaman",
        "District": "Kahta"
    },
    {
        "Network": "TU",
        "Code": "GER",
        "Longitude": 39.0352,
        "Latitude": 38.0315,
        "Height": 815.0,
        "Province": "Adıyaman",
        "District": "Gerger"
    },
    {
        "Network": "TU",
        "Code": "BES",
        "Longitude": 37.855,
        "Latitude": 37.7001,
        "Height": 1010.0,
        "Province": "Adıyaman",
        "District": "Besni"
    },
    {
        "Network": "TU",
        "Code": "PAL",
        "Longitude": 39.9176,
        "Latitude": 38.6986,
        "Height": 1032.0,
        "Province": "Elazığ",
        "District": "Palu"
    },
    {
        "Network": "TU",
        "Code": "CLH",
        "Longitude": 38.2066,
        "Latitude": 38.0156,
        "Height": 1304.0,
        "Province": "Adıyaman",
        "District": "Çelikhan"
    },
    {
        "Network": "TU",
        "Code": "PTG",
        "Longitude": 38.6088,
        "Latitude": 38.26,
        "Height": 1784.0,
        "Province": "Malatya",
        "District": "Battalgazi"
    },
    {
        "Network": "TU",
        "Code": "MDN",
        "Longitude": 39.6821,
        "Latitude": 38.3931,
        "Height": 1138.0,
        "Province": "Elazığ",
        "District": "Maden"
    },
    {
        "Network": "TU",
        "Code": "NAR",
        "Longitude": 37.1574,
        "Latitude": 37.3919,
        "Height": 650.0,
        "Province": "Kahramanmaraş",
        "District": "Pazarcık"
    },
    {
        "Network": "TU",
        "Code": "CGC",
        "Longitude": 37.296,
        "Latitude": 37.747,
        "Height": 1114.0,
        "Province": "Kahramanmaraş",
        "District": "Çağlayancerit"
    },
    {
        "Network": "TU",
        "Code": "CNG",
        "Longitude": 39.2995,
        "Latitude": 38.2145,
        "Height": 1023.0,
        "Province": "Diyarbakır",
        "District": "Çüngüş"
    },
    {
        "Network": "TU",
        "Code": "AKK",
        "Longitude": 38.985,
        "Latitude": 38.497,
        "Height": 1650.0,
        "Province": "Elazığ",
        "District": "Merkez"
    },
    {
        "Network": "TU",
        "Code": "FRT",
        "Longitude": 39.1976,
        "Latitude": 38.684,
        "Height": 1100.0,
        "Province": "Elazığ",
        "District": "Merkez"
    },
    {
        "Network": "TU",
        "Code": "CAY",
        "Longitude": 35.3182,
        "Latitude": 37.1721,
        "Height": 116.0,
        "Province": "Adana",
        "District": "Sarıçam"
    },
    {
        "Network": "TU",
        "Code": "HAS",
        "Longitude": 36.465,
        "Latitude": 36.7719,
        "Height": 850.0,
        "Province": "Hatay",
        "District": "Hassa"
    },
    {
        "Network": "TU",
        "Code": "HCB",
        "Longitude": 36.908,
        "Latitude": 37.3438,
        "Height": 516.0,
        "Province": "Kahramanmaraş",
        "District": "Türkoğlu"
    },
    {
        "Network": "TU",
        "Code": "AYK",
        "Longitude": 36.8067,
        "Latitude": 37.4144,
        "Height": 580.0,
        "Province": "Kahramanmaraş",
        "District": "Türkoğlu"
    },
    {
        "Network": "TU",
        "Code": "MLTY",
        "Longitude": 38.4253,
        "Latitude": 38.3257,
        "Height": 1050.0,
        "Province": "Malatya",
        "District": "Battalgazi"
    },
    {
        "Network": "TU",
        "Code": "0001",
        "Longitude": 35.8525,
        "Latitude": 40.6681,
        "Height": 520.0,
        "Province": "Amasya",
        "District": "Merkez"
    },
    {
        "Network": "TU",
        "Code": "0002",
        "Longitude": 33.6018,
        "Latitude": 40.6008,
        "Height": 805.0,
        "Province": "Çankırı",
        "District": "Merkez"
    },
    {
        "Network": "TU",
        "Code": "0003",
        "Longitude": 34.9826,
        "Latitude": 40.5783,
        "Height": 894.0,
        "Province": "Çorum",
        "District": "Merkez"
    },
    {
        "Network": "TU",
        "Code": "0004",
        "Longitude": 33.7913,
        "Latitude": 41.4128,
        "Height": 694.0,
        "Province": "Kastamonu",
        "District": "Merkez"
    },
    {
        "Network": "TU",
        "Code": "0005",
        "Longitude": 36.3683,
        "Latitude": 41.2647,
        "Height": 460.0,
        "Province": "Samsun",
        "District": "Canik"
    },
    {
        "Network": "TU",
        "Code": "0007",
        "Longitude": 36.5466,
        "Latitude": 40.3225,
        "Height": 680.0,
        "Province": "Tokat",
        "District": "Merkez"
    },
    {
        "Network": "TU",
        "Code": "0009",
        "Longitude": 34.8065,
        "Latitude": 39.8118,
        "Height": 1358.0,
        "Province": "Yozgat",
        "District": "Merkez"
    },
    {
        "Network": "TU",
        "Code": "0006",
        "Longitude": 35.4355,
        "Latitude": 41.1436,
        "Height": 130.0,
        "Province": "Samsun",
        "District": "Vezirköprü"
    },
    {
        "Network": "TU",
        "Code": "0008",
        "Longitude": 36.9555,
        "Latitude": 40.5813,
        "Height": 720.0,
        "Province": "Tokat",
        "District": "Niksar"
    },
    {
        "Network": "TU",
        "Code": "0010",
        "Longitude": 32.753,
        "Latitude": 39.9081,
        "Height": 850.0,
        "Province": "Ankara",
        "District": "Çankaya"
    },
    {
        "Network": "GE",
        "Code": "GVD",
        "Longitude": 24.09,
        "Latitude": 34.84,
        "Height": 180.0,
        "Province": "-",
        "District": "-"
    },
    {
        "Network": "GE",
        "Code": "SANT",
        "Longitude": 25.46,
        "Latitude": 36.37,
        "Height": 540.0,
        "Province": "-",
        "District": "-"
    },
    {
        "Network": "GE",
        "Code": "ISP",
        "Longitude": 30.51,
        "Latitude": 37.84,
        "Height": 1100.0,
        "Province": "Isparta",
        "District": "Merkez"
    },
    {
        "Network": "GE",
        "Code": "CSS",
        "Longitude": 33.33,
        "Latitude": 34.96,
        "Height": 396.0,
        "Province": "-",
        "District": "-"
    },
    {
        "Network": "GE",
        "Code": "ZKR",
        "Longitude": 26.22,
        "Latitude": 35.11,
        "Height": 270.0,
        "Province": "-",
        "District": "-"
    },
    {
        "Network": "GE",
        "Code": "MALT",
        "Longitude": 38.43,
        "Latitude": 38.31,
        "Height": 1120.0,
        "Province": "Malatya",
        "District": "Battalgazi"
    },
    {
        "Network": "GE",
        "Code": "APE",
        "Longitude": 25.53,
        "Latitude": 37.07,
        "Height": 620.0,
        "Province": "-",
        "District": "-"
    },
    {
        "Network": "IU",
        "Code": "ANTO",
        "Longitude": 32.7936,
        "Latitude": 39.8689,
        "Height": 883.0,
        "Province": "Ankara",
        "District": "Çankaya"
    },
    {
        "Network": "TU",
        "Code": "TROY",
        "Longitude": 26.418,
        "Latitude": 40.11,
        "Height": 95.0,
        "Province": "Çanakkale",
        "District": "Merkez"
    },
    {
        "Network": "TU",
        "Code": "KLC",
        "Longitude": 29.398,
        "Latitude": 40.633,
        "Height": 138.0,
        "Province": "Yalova",
        "District": "Çiftlikköy"
    },
    {
        "Network": "TU",
        "Code": "ALT",
        "Longitude": 28.74,
        "Latitude": 41.088,
        "Height": 18.0,
        "Province": "İstanbul",
        "District": "Başakşehir"
    },
    {
        "Network": "TU",
        "Code": "CMH",
        "Longitude": 27.9703,
        "Latitude": 40.0115,
        "Height": 205.0,
        "Province": "Balıkesir",
        "District": "Manyas"
    },
    {
        "Network": "TU",
        "Code": "SDU",
        "Longitude": 30.9996,
        "Latitude": 37.4765,
        "Height": 0.0,
        "Province": "Isparta",
        "District": "Sütçüler"
    },
    {
        "Network": "TU",
        "Code": "HNZ",
        "Longitude": 29.2696,
        "Latitude": 37.7495,
        "Height": 797.0,
        "Province": "Denizli",
        "District": "Honaz"
    },
    {
        "Network": "TU",
        "Code": "DRP",
        "Longitude": 32.7422,
        "Latitude": 39.3417,
        "Height": 1134.0,
        "Province": "Ankara",
        "District": "Haymana"
    },
    {
        "Network": "TU",
        "Code": "BKS",
        "Longitude": 33.2629,
        "Latitude": 39.1961,
        "Height": 998.0,
        "Province": "Ankara",
        "District": "Şereflikoçhisar"
    },
    {
        "Network": "TU",
        "Code": "CEV",
        "Longitude": 33.5885,
        "Latitude": 39.4517,
        "Height": 1029.0,
        "Province": "Kırıkkale",
        "District": "Çelebi"
    },
    {
        "Network": "TU",
        "Code": "SOF",
        "Longitude": 33.0964,
        "Latitude": 39.2884,
        "Height": 975.0,
        "Province": "Ankara",
        "District": "Bala"
    },
    {
        "Network": "TU",
        "Code": "OGB",
        "Longitude": 32.8304,
        "Latitude": 39.6851,
        "Height": 1130.0,
        "Province": "Ankara",
        "District": "Gölbaşı"
    },
    {
        "Network": "TU",
        "Code": "YAR",
        "Longitude": 32.927,
        "Latitude": 39.1704,
        "Height": 1154.0,
        "Province": "Konya",
        "District": "Kulu"
    },
    {
        "Network": "TU",
        "Code": "CARP",
        "Longitude": 29.1715,
        "Latitude": 36.8415,
        "Height": 986.0,
        "Province": "Muğla",
        "District": "Fethiye"
    },
    {
        "Network": "TU",
        "Code": "CKRZ",
        "Longitude": 29.1922,
        "Latitude": 36.9732,
        "Height": 860.0,
        "Province": "Denizli",
        "District": "Çameli"
    },
    {
        "Network": "TU",
        "Code": "CELM",
        "Longitude": 28.9968,
        "Latitude": 36.886,
        "Height": 815.0,
        "Province": "Muğla",
        "District": "Dalaman"
    },
    {
        "Network": "TU",
        "Code": "CBCK",
        "Longitude": 29.3126,
        "Latitude": 37.0379,
        "Height": 1250.0,
        "Province": "Denizli",
        "District": "Çameli"
    },
    {
        "Network": "TU",
        "Code": "CKCV",
        "Longitude": 29.2462,
        "Latitude": 37.0925,
        "Height": 1102.0,
        "Province": "Denizli",
        "District": "Çameli"
    },
    {
        "Network": "TU",
        "Code": "CSKZ",
        "Longitude": 29.0769,
        "Latitude": 37.0645,
        "Height": 745.0,
        "Province": "Denizli",
        "District": "Acıpayam"
    },
    {
        "Network": "TU",
        "Code": "CTSC",
        "Longitude": 29.2581,
        "Latitude": 36.9352,
        "Height": 1052.0,
        "Province": "Denizli",
        "District": "Çameli"
    },
    {
        "Network": "TU",
        "Code": "CUZM",
        "Longitude": 29.2732,
        "Latitude": 36.7155,
        "Height": 703.0,
        "Province": "Muğla",
        "District": "Fethiye"
    },
    {
        "Network": "TU",
        "Code": "AUMIH",
        "Longitude": 31.4832,
        "Latitude": 39.8679,
        "Height": 1416.0,
        "Province": "Eskişehir",
        "District": "Mihalıcçık"
    },
    {
        "Network": "TU",
        "Code": "AUSIV",
        "Longitude": 31.5397,
        "Latitude": 39.4396,
        "Height": 1111.0,
        "Province": "Eskişehir",
        "District": "Sivrihisar"
    },
    {
        "Network": "TU",
        "Code": "AUKUT",
        "Longitude": 30.0213,
        "Latitude": 39.3955,
        "Height": 1085.0,
        "Province": "Kütahya",
        "District": "Merkez"
    },
    {
        "Network": "TU",
        "Code": "AUKIR",
        "Longitude": 30.5308,
        "Latitude": 39.2872,
        "Height": 1088.0,
        "Province": "Eskişehir",
        "District": "Seyitgazi"
    },
    {
        "Network": "TU",
        "Code": "AUBOZ",
        "Longitude": 30.0325,
        "Latitude": 39.9107,
        "Height": 853.0,
        "Province": "Bilecik",
        "District": "Bozüyük"
    },
    {
        "Network": "TU",
        "Code": "CIBE",
        "Longitude": 29.4152,
        "Latitude": 36.9873,
        "Height": 1112.0,
        "Province": "Burdur",
        "District": "Gölhisar"
    },
    {
        "Network": "TU",
        "Code": "CBAL",
        "Longitude": 29.4108,
        "Latitude": 36.8551,
        "Height": 1373.0,
        "Province": "Burdur",
        "District": "Altınyayla"
    },
    {
        "Network": "TU",
        "Code": "BZG",
        "Longitude": 26.9865,
        "Latitude": 40.1727,
        "Height": 180.0,
        "Province": "Çanakkale",
        "District": "Biga"
    },
    {
        "Network": "TU",
        "Code": "CTK",
        "Longitude": 34.7897,
        "Latitude": 40.6231,
        "Height": 1650.0,
        "Province": "Çorum",
        "District": "Merkez"
    },
    {
        "Network": "TU",
        "Code": "CUZAR",
        "Longitude": 37.7705,
        "Latitude": 39.8882,
        "Height": 1425.0,
        "Province": "Sivas",
        "District": "Zara"
    },
    {
        "Network": "-",
        "Code": "GUL",
        "Longitude": 34.7763,
        "Latitude": 37.2837,
        "Height": 1625.0,
        "Province": "Mersin",
        "District": "Tarsus"
    },
    {
        "Network": "TU",
        "Code": "KOZ",
        "Longitude": 35.8198,
        "Latitude": 37.4338,
        "Height": 118.0,
        "Province": "Adana",
        "District": "Kozan"
    },
    {
        "Network": "TU",
        "Code": "MANS",
        "Longitude": 28.5578,
        "Latitude": 38.4908,
        "Height": 961.0,
        "Province": "Manisa",
        "District": "Kula"
    },
    {
        "Network": "TU",
        "Code": "MARK",
        "Longitude": 30.4356,
        "Latitude": 36.2748,
        "Height": 999.0,
        "Province": "Antalya",
        "District": "Kumluca"
    },
    {
        "Network": "-",
        "Code": "MYC",
        "Longitude": 27.7133,
        "Latitude": 41.0325,
        "Height": 99.0,
        "Province": "Tekirdağ",
        "District": "Çorlu"
    },
    {
        "Network": "TU",
        "Code": "OLTU",
        "Longitude": 41.9734,
        "Latitude": 40.546,
        "Height": 1350.0,
        "Province": "Erzurum",
        "District": "Oltu"
    },
    {
        "Network": "TU",
        "Code": "TOKT",
        "Longitude": 28.0311,
        "Latitude": 39.7617,
        "Height": 407.0,
        "Province": "Balıkesir",
        "District": "Altıeylül"
    },
    {
        "Network": "TU",
        "Code": "VAN",
        "Longitude": 43.4061,
        "Latitude": 38.5286,
        "Height": 0.0,
        "Province": "Van",
        "District": "Tuşba"
    },
    {
        "Network": "-",
        "Code": "STZ",
        "Longitude": 29.1267,
        "Latitude": 40.9442,
        "Height": 30.0,
        "Province": "İstanbul",
        "District": "Maltepe"
    },
    {
        "Network": "-",
        "Code": "SYY1",
        "Longitude": 29.1267,
        "Latitude": 40.9442,
        "Height": 30.0,
        "Province": "İstanbul",
        "District": "Maltepe"
    },
    {
        "Network": "-",
        "Code": "EADA",
        "Longitude": 29.2905,
        "Latitude": 40.8212,
        "Height": 6.0,
        "Province": "İstanbul",
        "District": "Tuzla"
    },
    {
        "Network": "TU",
        "Code": "BLA",
        "Longitude": 33.1206,
        "Latitude": 39.5559,
        "Height": 0.0,
        "Province": "Ankara",
        "District": "Bala"
    },
    {
        "Network": "TU",
        "Code": "BAKC",
        "Longitude": 29.3084,
        "Latitude": 37.9475,
        "Height": 900.0,
        "Province": "Denizli",
        "District": "Çal"
    },
    {
        "Network": "TU",
        "Code": "IRLI",
        "Longitude": 29.1841,
        "Latitude": 37.8831,
        "Height": 350.0,
        "Province": "Denizli",
        "District": "Pamukkale"
    },
    {
        "Network": "TU",
        "Code": "KOCA",
        "Longitude": 29.2088,
        "Latitude": 37.8407,
        "Height": 345.0,
        "Province": "Denizli",
        "District": "Pamukkale"
    },
    {
        "Network": "TU",
        "Code": "SAZA",
        "Longitude": 28.9068,
        "Latitude": 37.9613,
        "Height": 180.0,
        "Province": "Denizli",
        "District": "Sarayköy"
    },
    {
        "Network": "TU",
        "Code": "UZER",
        "Longitude": 29.0378,
        "Latitude": 37.8912,
        "Height": 215.0,
        "Province": "Denizli",
        "District": "Merkezefendi"
    },
    {
        "Network": "TU",
        "Code": "REFA",
        "Longitude": 38.7651,
        "Latitude": 39.906,
        "Height": 1594.0,
        "Province": "Erzincan",
        "District": "Refahiye"
    },
    {
        "Network": "TU",
        "Code": "KERG",
        "Longitude": 34.1253,
        "Latitude": 37.4146,
        "Height": 1365.0,
        "Province": "Konya",
        "District": "Ereğli"
    },
    {
        "Network": "TU",
        "Code": "KESN",
        "Longitude": 26.68,
        "Latitude": 40.8259,
        "Height": 366.0,
        "Province": "Edirne",
        "District": "Keşan"
    },
    {
        "Network": "TU",
        "Code": "KULU",
        "Longitude": 32.9173,
        "Latitude": 39.1713,
        "Height": 1178.0,
        "Province": "Konya",
        "District": "Kulu"
    },
    {
        "Network": "TU",
        "Code": "KAND",
        "Longitude": 30.1922,
        "Latitude": 41.0943,
        "Height": 75.0,
        "Province": "Kocaeli",
        "District": "Kandıra"
    },
    {
        "Network": "TU",
        "Code": "BTMN",
        "Longitude": 41.2699,
        "Latitude": 37.8911,
        "Height": 962.0,
        "Province": "Batman",
        "District": "Beşiri"
    },
    {
        "Network": "TU",
        "Code": "SURC",
        "Longitude": 38.6128,
        "Latitude": 36.8793,
        "Height": 632.0,
        "Province": "Şanlıurfa",
        "District": "Akçakale"
    },
    {
        "Network": "TU",
        "Code": "TNCL",
        "Longitude": 39.5422,
        "Latitude": 39.1146,
        "Height": 1192.0,
        "Province": "Tunceli",
        "District": "Merkez"
    },
    {
        "Network": "TU",
        "Code": "VMUR",
        "Longitude": 43.5716,
        "Latitude": 38.9894,
        "Height": 1717.0,
        "Province": "Van",
        "District": "Erciş"
    },
    {
        "Network": "TU",
        "Code": "CALC",
        "Longitude": 34.986,
        "Latitude": 40.2548,
        "Height": 1154.0,
        "Province": "Çorum",
        "District": "Alaca"
    },
    {
        "Network": "TU",
        "Code": "SAMS",
        "Longitude": 36.1872,
        "Latitude": 41.361,
        "Height": 192.0,
        "Province": "Samsun",
        "District": "Atakum"
    },
    {
        "Network": "TU",
        "Code": "ORDU",
        "Longitude": 37.8571,
        "Latitude": 40.991,
        "Height": 526.0,
        "Province": "Ordu",
        "District": "Altınordu"
    },
    {
        "Network": "TU",
        "Code": "COAL",
        "Longitude": 34.986,
        "Latitude": 40.2548,
        "Height": 1154.0,
        "Province": "Çorum",
        "District": "Alaca"
    },
    {
        "Network": "TU",
        "Code": "AVNS",
        "Longitude": 34.8474,
        "Latitude": 38.8065,
        "Height": 1221.0,
        "Province": "Nevşehir",
        "District": "Avanos"
    },
    {
        "Network": "GO",
        "Code": "TBLG",
        "Longitude": 44.7382,
        "Latitude": 41.7309,
        "Height": 540.0,
        "Province": "-",
        "District": "-"
    },
    {
        "Network": "GO",
        "Code": "DGRG",
        "Longitude": 45.3732,
        "Latitude": 41.4507,
        "Height": 690.0,
        "Province": "-",
        "District": "-"
    },
    {
        "Network": "GO",
        "Code": "CHVG",
        "Longitude": 42.0841,
        "Latitude": 42.7183,
        "Height": 390.0,
        "Province": "-",
        "District": "-"
    },
    {
        "Network": "GO",
        "Code": "AKHA",
        "Longitude": 43.4928,
        "Latitude": 41.4101,
        "Height": 1720.0,
        "Province": "-",
        "District": "-"
    },
    {
        "Network": "TU",
        "Code": "KKUL",
        "Longitude": 32.9173,
        "Latitude": 39.1713,
        "Height": 1178.0,
        "Province": "Konya",
        "District": "Kulu"
    },
    {
        "Network": "TU",
        "Code": "SAHE",
        "Longitude": 30.8536,
        "Latitude": 40.8525,
        "Height": 481.0,
        "Province": "Sakarya",
        "District": "Hendek"
    },
    {
        "Network": "TU",
        "Code": "KEPZ",
        "Longitude": 31.604,
        "Latitude": 36.9015,
        "Height": 615.0,
        "Province": "Antalya",
        "District": "Akseki"
    },
    {
        "Network": "TU",
        "Code": "KMER",
        "Longitude": 32.368,
        "Latitude": 37.7685,
        "Height": 1231.0,
        "Province": "Konya",
        "District": "Meram"
    },
    {
        "Network": "TU",
        "Code": "BGOL",
        "Longitude": 40.6711,
        "Latitude": 38.9881,
        "Height": 1166.0,
        "Province": "Bingöl",
        "District": "Merkez"
    },
    {
        "Network": "TU",
        "Code": "BTIN",
        "Longitude": 32.2504,
        "Latitude": 41.6361,
        "Height": 233.0,
        "Province": "Bartın",
        "District": "Merkez"
    },
    {
        "Network": "TU",
        "Code": "AKSY",
        "Longitude": 33.7607,
        "Latitude": 38.6497,
        "Height": 973.0,
        "Province": "Aksaray",
        "District": "Merkez"
    },
    {
        "Network": "TU",
        "Code": "YAHY",
        "Longitude": 35.363,
        "Latitude": 38.0947,
        "Height": 1230.0,
        "Province": "Kayseri",
        "District": "Yahyalı"
    },
    {
        "Network": "TU",
        "Code": "CTAK",
        "Longitude": 34.7914,
        "Latitude": 40.6478,
        "Height": 1775.0,
        "Province": "Çorum",
        "District": "Merkez"
    },
    {
        "Network": "TU",
        "Code": "BASK",
        "Longitude": 44.0104,
        "Latitude": 38.0474,
        "Height": 2412.0,
        "Province": "Van",
        "District": "Başkale"
    },
    {
        "Network": "KO",
        "Code": "CLDR",
        "Longitude": 43.9172,
        "Latitude": 39.144,
        "Height": 2094.0,
        "Province": "Van",
        "District": "Çaldıran"
    },
    {
        "Network": "KO",
        "Code": "CUKT",
        "Longitude": 43.6077,
        "Latitude": 37.2473,
        "Height": 1298.0,
        "Province": "Hakkari",
        "District": "Çukurca"
    },
    {
        "Network": "KO",
        "Code": "DALY",
        "Longitude": 28.6532,
        "Latitude": 36.8162,
        "Height": 548.0,
        "Province": "Muğla",
        "District": "Ortaca"
    },
    {
        "Network": "KO",
        "Code": "DAT",
        "Longitude": 27.5778,
        "Latitude": 36.729,
        "Height": 1100.0,
        "Province": "Muğla",
        "District": "Datça"
    },
    {
        "Network": "KO",
        "Code": "EREN",
        "Longitude": 34.1742,
        "Latitude": 35.5292,
        "Height": 88.0,
        "Province": "-",
        "District": "-"
    },
    {
        "Network": "KO",
        "Code": "FETY",
        "Longitude": 29.0835,
        "Latitude": 36.6353,
        "Height": 200.0,
        "Province": "Muğla",
        "District": "Fethiye"
    },
    {
        "Network": "KO",
        "Code": "KONT",
        "Longitude": 32.3605,
        "Latitude": 37.9453,
        "Height": 550.0,
        "Province": "Konya",
        "District": "Selçuklu"
    },
    {
        "Network": "KO",
        "Code": "LEF",
        "Longitude": 32.8433,
        "Latitude": 35.1118,
        "Height": 152.0,
        "Province": "-",
        "District": "-"
    },
    {
        "Network": "KO",
        "Code": "SVAN",
        "Longitude": 41.1985,
        "Latitude": 38.1512,
        "Height": 0.0,
        "Province": "Diyarbakır",
        "District": "Silvan"
    },
    {
        "Network": "KO",
        "Code": "VRTB",
        "Longitude": 41.456,
        "Latitude": 39.1603,
        "Height": 1500.0,
        "Province": "Muş",
        "District": "Varto"
    },
    {
        "Network": "TU",
        "Code": "CMDR",
        "Longitude": 32.475,
        "Latitude": 40.4942,
        "Height": 1305.0,
        "Province": "Ankara",
        "District": "Çamlıdere"
    },
    {
        "Network": "TU",
        "Code": "KZIL",
        "Longitude": 30.1412,
        "Latitude": 38.2575,
        "Height": 1202.0,
        "Province": "Afyonkarahisar",
        "District": "Kızılören"
    },
    {
        "Network": "TU",
        "Code": "BRDR",
        "Longitude": 30.0613,
        "Latitude": 37.6963,
        "Height": 935.0,
        "Province": "Burdur",
        "District": "Merkez"
    },
    {
        "Network": "TU",
        "Code": "TAVA",
        "Longitude": 28.9132,
        "Latitude": 37.4657,
        "Height": 1016.0,
        "Province": "Denizli",
        "District": "Tavas"
    },
    {
        "Network": "TU",
        "Code": "STEP",
        "Longitude": 27.7183,
        "Latitude": 39.3767,
        "Height": 519.0,
        "Province": "Balıkesir",
        "District": "Savaştepe"
    },
    {
        "Network": "TU",
        "Code": "BAYC",
        "Longitude": 26.5469,
        "Latitude": 39.7413,
        "Height": 349.0,
        "Province": "Çanakkale",
        "District": "Bayramiç"
    },
    {
        "Network": "TU",
        "Code": "GEYV",
        "Longitude": 30.2958,
        "Latitude": 40.4842,
        "Height": 223.0,
        "Province": "Sakarya",
        "District": "Geyve"
    },
    {
        "Network": "TU",
        "Code": "SINO",
        "Longitude": 35.2019,
        "Latitude": 42.0184,
        "Height": 203.0,
        "Province": "Sinop",
        "District": "Merkez"
    },
    {
        "Network": "TU",
        "Code": "DOGA",
        "Longitude": 31.6682,
        "Latitude": 38.1058,
        "Height": 1452.0,
        "Province": "Konya",
        "District": "Doğanhisar"
    },
    {
        "Network": "TU",
        "Code": "GULN",
        "Longitude": 33.5435,
        "Latitude": 36.1836,
        "Height": 150.0,
        "Province": "Mersin",
        "District": "Gülnar"
    },
    {
        "Network": "TU",
        "Code": "SAIM",
        "Longitude": 36.0823,
        "Latitude": 37.9766,
        "Height": 1028.0,
        "Province": "Adana",
        "District": "Saimbeyli"
    },
    {
        "Network": "TU",
        "Code": "ADCV",
        "Longitude": 42.7246,
        "Latitude": 38.808,
        "Height": 1774.0,
        "Province": "Bitlis",
        "District": "Adilcevaz"
    },
    {
        "Network": "TU",
        "Code": "SRTM",
        "Longitude": 41.9223,
        "Latitude": 37.9911,
        "Height": 1145.0,
        "Province": "Siirt",
        "District": "Merkez"
    },
    {
        "Network": "TU",
        "Code": "HANI",
        "Longitude": 40.3994,
        "Latitude": 38.4147,
        "Height": 923.0,
        "Province": "Diyarbakır",
        "District": "Hani"
    },
    {
        "Network": "TU",
        "Code": "SANL",
        "Longitude": 38.9892,
        "Latitude": 37.1712,
        "Height": 505.0,
        "Province": "Şanlıurfa",
        "District": "Haliliye"
    },
    {
        "Network": "TU",
        "Code": "ELBS",
        "Longitude": 37.1327,
        "Latitude": 38.3243,
        "Height": 1260.0,
        "Province": "Kahramanmaraş",
        "District": "Elbistan"
    },
    {
        "Network": "TU",
        "Code": "YOVA",
        "Longitude": 44.2896,
        "Latitude": 37.5871,
        "Height": 1946.0,
        "Province": "Hakkari",
        "District": "Yüksekova"
    },
    {
        "Network": "TU",
        "Code": "HEKM",
        "Longitude": 37.9591,
        "Latitude": 38.879,
        "Height": 1859.0,
        "Province": "Malatya",
        "District": "Hekimhan"
    },
    {
        "Network": "TU",
        "Code": "ODTU",
        "Longitude": 32.7935,
        "Latitude": 39.8681,
        "Height": 1077.0,
        "Province": "Ankara",
        "District": "Çankaya"
    },
    {
        "Network": "TU",
        "Code": "IGDI",
        "Longitude": 44.078,
        "Latitude": 39.8681,
        "Height": 860.0,
        "Province": "Iğdır",
        "District": "Merkez"
    },
    {
        "Network": "TU",
        "Code": "BAYB",
        "Longitude": 40.2576,
        "Latitude": 40.2586,
        "Height": 2015.0,
        "Province": "Bayburt",
        "District": "Merkez"
    },
    {
        "Network": "GO",
        "Code": "BTNK",
        "Longitude": 44.7988,
        "Latitude": 41.6833,
        "Height": 579.0,
        "Province": "-",
        "District": "-"
    },
    {
        "Network": "TU",
        "Code": "SMV1",
        "Longitude": 29.2628,
        "Latitude": 39.3403,
        "Height": 1008.0,
        "Province": "Kütahya",
        "District": "Emet"
    },
    {
        "Network": "TU",
        "Code": "SMV2",
        "Longitude": 29.0244,
        "Latitude": 39.1086,
        "Height": 846.0,
        "Province": "Kütahya",
        "District": "Simav"
    },
    {
        "Network": "TU",
        "Code": "SMV3",
        "Longitude": 29.2757,
        "Latitude": 39.1999,
        "Height": 924.0,
        "Province": "Kütahya",
        "District": "Hisarcık"
    },
    {
        "Network": "TU",
        "Code": "SMV4",
        "Longitude": 29.1297,
        "Latitude": 38.9966,
        "Height": 0.0,
        "Province": "Kütahya",
        "District": "Pazarlar"
    },
    {
        "Network": "TU",
        "Code": "SMV5",
        "Longitude": 29.2467,
        "Latitude": 38.9221,
        "Height": 831.0,
        "Province": "Kütahya",
        "District": "Gediz"
    },
    {
        "Network": "TU",
        "Code": "SIMV",
        "Longitude": 29.0244,
        "Latitude": 39.1086,
        "Height": 846.0,
        "Province": "Kütahya",
        "District": "Simav"
    },
    {
        "Network": "TU",
        "Code": "AKDA",
        "Longitude": 41.3636,
        "Latitude": 40.1034,
        "Height": 1875.0,
        "Province": "Erzurum",
        "District": "Yakutiye"
    },
    {
        "Network": "TU",
        "Code": "KBUK",
        "Longitude": 32.627,
        "Latitude": 41.2366,
        "Height": 548.0,
        "Province": "Karabük",
        "District": "Merkez"
    },
    {
        "Network": "TU",
        "Code": "DELI",
        "Longitude": 33.9204,
        "Latitude": 39.9979,
        "Height": 1169.0,
        "Province": "Kırıkkale",
        "District": "Delice"
    },
    {
        "Network": "TU",
        "Code": "YIGI",
        "Longitude": 31.4485,
        "Latitude": 40.9631,
        "Height": 353.0,
        "Province": "Düzce",
        "District": "Yığılca"
    },
    {
        "Network": "TU",
        "Code": "KIBS",
        "Longitude": 31.8524,
        "Latitude": 40.4197,
        "Height": 1199.0,
        "Province": "Bolu",
        "District": "Kıbrıscık"
    },
    {
        "Network": "TU",
        "Code": "GUNE",
        "Longitude": 35.625,
        "Latitude": 38.9025,
        "Height": 1235.0,
        "Province": "Kayseri",
        "District": "Kocasinan"
    },
    {
        "Network": "TU",
        "Code": "SIRC",
        "Longitude": 35.1481,
        "Latitude": 39.3363,
        "Height": 1241.0,
        "Province": "Yozgat",
        "District": "Boğazlıyan"
    },
    {
        "Network": "TU",
        "Code": "KIRK",
        "Longitude": 27.0972,
        "Latitude": 41.7817,
        "Height": 258.0,
        "Province": "Kırklareli",
        "District": "Merkez"
    },
    {
        "Network": "TU",
        "Code": "ZEDA",
        "Longitude": 27.0771,
        "Latitude": 38.9665,
        "Height": 179.0,
        "Province": "İzmir",
        "District": "Bergama"
    },
    {
        "Network": "TU",
        "Code": "USAK",
        "Longitude": 29.0181,
        "Latitude": 38.7143,
        "Height": 723.0,
        "Province": "Uşak",
        "District": "Merkez"
    },
    {
        "Network": "TU",
        "Code": "AFYO",
        "Longitude": 30.2988,
        "Latitude": 38.7871,
        "Height": 1080.0,
        "Province": "Afyonkarahisar",
        "District": "Sinanpaşa"
    },
    {
        "Network": "TU",
        "Code": "AKUM",
        "Longitude": 30.343,
        "Latitude": 36.3227,
        "Height": 70.0,
        "Province": "Antalya",
        "District": "Kumluca"
    },
    {
        "Network": "TK",
        "Code": "0704",
        "Longitude": 32.3156,
        "Latitude": 36.2347,
        "Height": 394.0,
        "Province": "Antalya",
        "District": "Gazipaşa"
    },
    {
        "Network": "TU",
        "Code": "KAGI",
        "Longitude": 34.4782,
        "Latitude": 41.1384,
        "Height": 448.0,
        "Province": "Çorum",
        "District": "Kargı"
    },
    {
        "Network": "TU",
        "Code": "PELI",
        "Longitude": 33.3177,
        "Latitude": 41.3005,
        "Height": 1057.0,
        "Province": "Kastamonu",
        "District": "Araç"
    },
    {
        "Network": "TU",
        "Code": "KIRS",
        "Longitude": 33.9168,
        "Latitude": 39.1329,
        "Height": 981.0,
        "Province": "Kırşehir",
        "District": "Merkez"
    },
    {
        "Network": "TU",
        "Code": "KRIK",
        "Longitude": 40.9271,
        "Latitude": 40.3374,
        "Height": 2025.0,
        "Province": "Erzurum",
        "District": "İspir"
    },
    {
        "Network": "TU",
        "Code": "BLIS",
        "Longitude": 42.1152,
        "Latitude": 38.4146,
        "Height": 1608.0,
        "Province": "Bitlis",
        "District": "Merkez"
    },
    {
        "Network": "TU",
        "Code": "MUSM",
        "Longitude": 41.5118,
        "Latitude": 38.724,
        "Height": 1357.0,
        "Province": "Muş",
        "District": "Merkez"
    },
    {
        "Network": "KO",
        "Code": "SRCK",
        "Longitude": 30.6259,
        "Latitude": 40.0416,
        "Height": 331.0,
        "Province": "Eskişehir",
        "District": "Sarıcakaya"
    },
    {
        "Network": "KO",
        "Code": "CIFT",
        "Longitude": 31.0625,
        "Latitude": 39.3611,
        "Height": 892.0,
        "Province": "Eskişehir",
        "District": "Çifteler"
    },
    {
        "Network": "GO",
        "Code": "DDFL",
        "Longitude": 46.1183,
        "Latitude": 41.4458,
        "Height": 856.0,
        "Province": "-",
        "District": "-"
    },
    {
        "Network": "GO",
        "Code": "BATM",
        "Longitude": 41.6936,
        "Latitude": 41.604,
        "Height": 298.0,
        "Province": "-",
        "District": "-"
    },
    {
        "Network": "GO",
        "Code": "KZRT",
        "Longitude": 44.3987,
        "Latitude": 41.3866,
        "Height": 723.0,
        "Province": "-",
        "District": "-"
    },
    {
        "Network": "TU",
        "Code": "AGRI",
        "Longitude": 43.0251,
        "Latitude": 39.7176,
        "Height": 0.0,
        "Province": "Ağrı",
        "District": "Merkez"
    },
    {
        "Network": "TU",
        "Code": "MERT",
        "Longitude": 34.1453,
        "Latitude": 36.5869,
        "Height": 855.0,
        "Province": "Mersin",
        "District": "Erdemli"
    },
    {
        "Network": "TU",
        "Code": "ELZ",
        "Longitude": 38.9844,
        "Latitude": 38.4978,
        "Height": 999.0,
        "Province": "Elazığ",
        "District": "Merkez"
    },
    {
        "Network": "TU",
        "Code": "AMSY",
        "Longitude": 35.8347,
        "Latitude": 40.6371,
        "Height": 951.0,
        "Province": "Amasya",
        "District": "Merkez"
    },
    {
        "Network": "TU",
        "Code": "EMRE",
        "Longitude": 40.9762,
        "Latitude": 40.0302,
        "Height": 2066.0,
        "Province": "Erzurum",
        "District": "Aziziye"
    },
    {
        "Network": "TK",
        "Code": "0707",
        "Longitude": 30.3503,
        "Latitude": 37.0007,
        "Height": 1303.0,
        "Province": "Antalya",
        "District": "Korkuteli"
    },
    {
        "Network": "TU",
        "Code": "EJDE",
        "Longitude": 41.3035,
        "Latitude": 39.8337,
        "Height": 3151.0,
        "Province": "Erzurum",
        "District": "Palandöken"
    },
    {
        "Network": "TU",
        "Code": "BBTK",
        "Longitude": 32.7603,
        "Latitude": 39.8422,
        "Height": 1200.0,
        "Province": "Ankara",
        "District": "Çankaya"
    },
    {
        "Network": "TK",
        "Code": "0104",
        "Longitude": 35.8095,
        "Latitude": 37.024,
        "Height": 38.0,
        "Province": "Adana",
        "District": "Ceyhan"
    },
    {
        "Network": "TK",
        "Code": "0110",
        "Longitude": 35.3901,
        "Latitude": 36.568,
        "Height": 22.0,
        "Province": "Adana",
        "District": "Karataş"
    },
    {
        "Network": "TK",
        "Code": "0122",
        "Longitude": 35.8202,
        "Latitude": 37.4339,
        "Height": 119.0,
        "Province": "Adana",
        "District": "Kozan"
    },
    {
        "Network": "TK",
        "Code": "0124",
        "Longitude": 34.8791,
        "Latitude": 37.4087,
        "Height": 791.0,
        "Province": "Adana",
        "District": "Pozantı"
    },
    {
        "Network": "TK",
        "Code": "0118",
        "Longitude": 35.3184,
        "Latitude": 37.0362,
        "Height": 76.0,
        "Province": "Adana",
        "District": "Çukurova"
    },
    {
        "Network": "TK",
        "Code": "0120",
        "Longitude": 35.7901,
        "Latitude": 36.7701,
        "Height": 35.0,
        "Province": "Adana",
        "District": "Yumurtalık"
    },
    {
        "Network": "TK",
        "Code": "0123",
        "Longitude": 35.3438,
        "Latitude": 37.0034,
        "Height": 23.0,
        "Province": "Adana",
        "District": "Yüreğir"
    },
    {
        "Network": "TK",
        "Code": "0206",
        "Longitude": 37.8496,
        "Latitude": 37.6887,
        "Height": 964.0,
        "Province": "Adıyaman",
        "District": "Besni"
    },
    {
        "Network": "TK",
        "Code": "0207",
        "Longitude": 38.2476,
        "Latitude": 38.0323,
        "Height": 1380.0,
        "Province": "Adıyaman",
        "District": "Çelikhan"
    },
    {
        "Network": "TK",
        "Code": "0204",
        "Longitude": 39.0347,
        "Latitude": 38.029,
        "Height": 777.0,
        "Province": "Adıyaman",
        "District": "Gerger"
    },
    {
        "Network": "TK",
        "Code": "0202",
        "Longitude": 37.6528,
        "Latitude": 37.7869,
        "Height": 1763.0,
        "Province": "Adıyaman",
        "District": "Gölbaşı"
    },
    {
        "Network": "TK",
        "Code": "0205",
        "Longitude": 38.616,
        "Latitude": 37.7918,
        "Height": 723.0,
        "Province": "Adıyaman",
        "District": "Kahta"
    },
    {
        "Network": "TK",
        "Code": "0201",
        "Longitude": 38.2674,
        "Latitude": 37.7612,
        "Height": 671.0,
        "Province": "Adıyaman",
        "District": "Merkez"
    },
    {
        "Network": "TK",
        "Code": "0302",
        "Longitude": 30.1537,
        "Latitude": 38.0599,
        "Height": 862.0,
        "Province": "Afyonkarahisar",
        "District": "Dinar"
    },
    {
        "Network": "TK",
        "Code": "0301",
        "Longitude": 30.534,
        "Latitude": 38.776,
        "Height": 1054.0,
        "Province": "Afyonkarahisar",
        "District": "Merkez"
    },
    {
        "Network": "TK",
        "Code": "0308",
        "Longitude": 30.2525,
        "Latitude": 38.437,
        "Height": 1056.0,
        "Province": "Afyonkarahisar",
        "District": "Sandıklı"
    },
    {
        "Network": "TK",
        "Code": "0309",
        "Longitude": 31.2379,
        "Latitude": 38.5261,
        "Height": 1006.0,
        "Province": "Afyonkarahisar",
        "District": "Sultandağı"
    },
    {
        "Network": "TK",
        "Code": "0405",
        "Longitude": 44.0909,
        "Latitude": 39.5493,
        "Height": 1593.0,
        "Province": "Ağrı",
        "District": "Doğubayazıt"
    },
    {
        "Network": "TK",
        "Code": "0403",
        "Longitude": 42.6801,
        "Latitude": 39.7989,
        "Height": 1809.0,
        "Province": "Ağrı",
        "District": "Eleşkirt"
    },
    {
        "Network": "TK",
        "Code": "0401",
        "Longitude": 43.0164,
        "Latitude": 39.7198,
        "Height": 1647.0,
        "Province": "Ağrı",
        "District": "Merkez"
    },
    {
        "Network": "TK",
        "Code": "0404",
        "Longitude": 42.7725,
        "Latitude": 39.5388,
        "Height": 1565.0,
        "Province": "Ağrı",
        "District": "Tutak"
    },
    {
        "Network": "TK",
        "Code": "6801",
        "Longitude": 34.027,
        "Latitude": 38.3709,
        "Height": 980.0,
        "Province": "Aksaray",
        "District": "Merkez"
    },
    {
        "Network": "TK",
        "Code": "0505",
        "Longitude": 35.5215,
        "Latitude": 40.3925,
        "Height": 484.0,
        "Province": "Amasya",
        "District": "Göynücek"
    },
    {
        "Network": "TK",
        "Code": "0501",
        "Longitude": 35.8039,
        "Latitude": 40.6438,
        "Height": 405.0,
        "Province": "Amasya",
        "District": "Merkez"
    },
    {
        "Network": "TK",
        "Code": "0508",
        "Longitude": 35.8347,
        "Latitude": 40.6371,
        "Height": 951.0,
        "Province": "Amasya",
        "District": "Merkez"
    },
    {
        "Network": "TK",
        "Code": "0603",
        "Longitude": 33.1186,
        "Latitude": 39.5583,
        "Height": 1305.0,
        "Province": "Ankara",
        "District": "Bala"
    },
    {
        "Network": "TK",
        "Code": "0601",
        "Longitude": 31.917,
        "Latitude": 40.1608,
        "Height": 684.0,
        "Province": "Ankara",
        "District": "Beypazarı"
    },
    {
        "Network": "TK",
        "Code": "0618",
        "Longitude": 32.4555,
        "Latitude": 40.4798,
        "Height": 1175.0,
        "Province": "Ankara",
        "District": "Çamlıdere"
    },
    {
        "Network": "TK",
        "Code": "0602",
        "Longitude": 32.4959,
        "Latitude": 39.4354,
        "Height": 1220.0,
        "Province": "Ankara",
        "District": "Haymana"
    },
    {
        "Network": "TK",
        "Code": "0617",
        "Longitude": 32.6319,
        "Latitude": 40.4569,
        "Height": 991.0,
        "Province": "Ankara",
        "District": "Kızılcahamam"
    },
    {
        "Network": "TK",
        "Code": "0605",
        "Longitude": 32.753,
        "Latitude": 39.9081,
        "Height": 850.0,
        "Province": "Ankara",
        "District": "Çankaya"
    },
    {
        "Network": "TK",
        "Code": "0604",
        "Longitude": 33.524,
        "Latitude": 38.9625,
        "Height": 971.0,
        "Province": "Ankara",
        "District": "Şereflikoçhisar"
    },
    {
        "Network": "TK",
        "Code": "0702",
        "Longitude": 29.9205,
        "Latitude": 36.737,
        "Height": 1095.0,
        "Province": "Antalya",
        "District": "Elmalı"
    },
    {
        "Network": "TK",
        "Code": "0712",
        "Longitude": 30.148,
        "Latitude": 36.3022,
        "Height": 1.0,
        "Province": "Antalya",
        "District": "Finike"
    },
    {
        "Network": "TK",
        "Code": "0705",
        "Longitude": 29.6474,
        "Latitude": 36.1951,
        "Height": 25.0,
        "Province": "Antalya",
        "District": "Kaş"
    },
    {
        "Network": "TK",
        "Code": "0706",
        "Longitude": 30.5597,
        "Latitude": 36.6029,
        "Height": 9.0,
        "Province": "Antalya",
        "District": "Kemer"
    },
    {
        "Network": "TK",
        "Code": "0708",
        "Longitude": 30.292,
        "Latitude": 36.3748,
        "Height": 36.0,
        "Province": "Antalya",
        "District": "Kumluca"
    },
    {
        "Network": "TK",
        "Code": "0709",
        "Longitude": 30.7215,
        "Latitude": 36.8788,
        "Height": 47.0,
        "Province": "Antalya",
        "District": "Muratpaşa"
    },
    {
        "Network": "TK",
        "Code": "0710",
        "Longitude": 31.4324,
        "Latitude": 36.7866,
        "Height": 4.0,
        "Province": "Antalya",
        "District": "Manavgat"
    },
    {
        "Network": "TK",
        "Code": "0701",
        "Longitude": 30.6667,
        "Latitude": 36.8944,
        "Height": 42.0,
        "Province": "Antalya",
        "District": "Muratpaşa"
    },
    {
        "Network": "TK",
        "Code": "0711",
        "Longitude": 31.0876,
        "Latitude": 36.918,
        "Height": 35.0,
        "Province": "Antalya",
        "District": "Serik"
    },
    {
        "Network": "TK",
        "Code": "7501",
        "Longitude": 42.7049,
        "Latitude": 41.1061,
        "Height": 1831.0,
        "Province": "Ardahan",
        "District": "Merkez"
    },
    {
        "Network": "TK",
        "Code": "0801",
        "Longitude": 41.8384,
        "Latitude": 41.1768,
        "Height": 201.0,
        "Province": "Artvin",
        "District": "Merkez"
    },
    {
        "Network": "TK",
        "Code": "0912",
        "Longitude": 28.746,
        "Latitude": 37.9739,
        "Height": 212.0,
        "Province": "Aydın",
        "District": "Buharkent"
    },
    {
        "Network": "TK",
        "Code": "0916",
        "Longitude": 28.0503,
        "Latitude": 37.8572,
        "Height": 81.0,
        "Province": "Aydın",
        "District": "Köşk"
    },
    {
        "Network": "TK",
        "Code": "0905",
        "Longitude": 27.265,
        "Latitude": 37.86,
        "Height": 24.0,
        "Province": "Aydın",
        "District": "Kuşadası"
    },
    {
        "Network": "TK",
        "Code": "0913",
        "Longitude": 28.4654,
        "Latitude": 37.9115,
        "Height": 93.0,
        "Province": "Aydın",
        "District": "Kuyucak"
    },
    {
        "Network": "TK",
        "Code": "0902",
        "Longitude": 27.7996,
        "Latitude": 37.8455,
        "Height": 65.0,
        "Province": "Aydın",
        "District": "Efeler"
    },
    {
        "Network": "TK",
        "Code": "0914",
        "Longitude": 28.3431,
        "Latitude": 37.9133,
        "Height": 82.0,
        "Province": "Aydın",
        "District": "Nazilli"
    },
    {
        "Network": "TK",
        "Code": "0911",
        "Longitude": 27.3921,
        "Latitude": 37.7616,
        "Height": 67.0,
        "Province": "Aydın",
        "District": "Söke"
    },
    {
        "Network": "TK",
        "Code": "0915",
        "Longitude": 28.1506,
        "Latitude": 37.8841,
        "Height": 74.0,
        "Province": "Aydın",
        "District": "Sultanhisar"
    },
    {
        "Network": "TK",
        "Code": "1005",
        "Longitude": 26.686,
        "Latitude": 39.3113,
        "Height": 4.0,
        "Province": "Balıkesir",
        "District": "Ayvalık"
    },
    {
        "Network": "TK",
        "Code": "1006",
        "Longitude": 27.9966,
        "Latitude": 40.3319,
        "Height": 61.0,
        "Province": "Balıkesir",
        "District": "Bandırma"
    },
    {
        "Network": "TK",
        "Code": "1008",
        "Longitude": 28.1273,
        "Latitude": 39.3979,
        "Height": 148.0,
        "Province": "Balıkesir",
        "District": "Bigadiç"
    },
    {
        "Network": "TK",
        "Code": "1009",
        "Longitude": 28.6323,
        "Latitude": 39.578,
        "Height": 649.0,
        "Province": "Balıkesir",
        "District": "Dursunbey"
    },
    {
        "Network": "TK",
        "Code": "1011",
        "Longitude": 27.861,
        "Latitude": 40.336,
        "Height": 174.0,
        "Province": "Balıkesir",
        "District": "Bandırma"
    },
    {
        "Network": "TK",
        "Code": "1013",
        "Longitude": 27.0192,
        "Latitude": 39.5895,
        "Height": 22.0,
        "Province": "Balıkesir",
        "District": "Edremit"
    },
    {
        "Network": "TK",
        "Code": "1014",
        "Longitude": 27.6424,
        "Latitude": 40.114,
        "Height": 33.0,
        "Province": "Balıkesir",
        "District": "Gönen"
    },
    {
        "Network": "TK",
        "Code": "1003",
        "Longitude": 27.862,
        "Latitude": 39.655,
        "Height": 158.0,
        "Province": "Balıkesir",
        "District": "Karesi"
    },
    {
        "Network": "TK",
        "Code": "1017",
        "Longitude": 27.8572,
        "Latitude": 39.6497,
        "Height": 262.0,
        "Province": "Balıkesir",
        "District": "Karesi"
    },
    {
        "Network": "TK",
        "Code": "1016",
        "Longitude": 27.6544,
        "Latitude": 39.3804,
        "Height": 284.0,
        "Province": "Balıkesir",
        "District": "Savaştepe"
    },
    {
        "Network": "TK",
        "Code": "1015",
        "Longitude": 28.1714,
        "Latitude": 39.2395,
        "Height": 234.0,
        "Province": "Balıkesir",
        "District": "Sındırgı"
    },
    {
        "Network": "TK",
        "Code": "7401",
        "Longitude": 32.3331,
        "Latitude": 41.6331,
        "Height": 17.0,
        "Province": "Bartın",
        "District": "Merkez"
    },
    {
        "Network": "TK",
        "Code": "7402",
        "Longitude": 32.2504,
        "Latitude": 41.6361,
        "Height": 233.0,
        "Province": "Bartın",
        "District": "Merkez"
    },
    {
        "Network": "TK",
        "Code": "7201",
        "Longitude": 41.1511,
        "Latitude": 37.873,
        "Height": 597.0,
        "Province": "Batman",
        "District": "Merkez"
    },
    {
        "Network": "TK",
        "Code": "1102",
        "Longitude": 30.0529,
        "Latitude": 39.9043,
        "Height": 751.0,
        "Province": "Bilecik",
        "District": "Bozüyük"
    },
    {
        "Network": "TK",
        "Code": "1101",
        "Longitude": 29.9774,
        "Latitude": 40.1411,
        "Height": 532.0,
        "Province": "Bilecik",
        "District": "Merkez"
    },
    {
        "Network": "TK",
        "Code": "1210",
        "Longitude": 40.5593,
        "Latitude": 38.7501,
        "Height": 1018.0,
        "Province": "Bingöl",
        "District": "Genç"
    },
    {
        "Network": "TK",
        "Code": "1206",
        "Longitude": 41.0088,
        "Latitude": 39.2935,
        "Height": 1825.0,
        "Province": "Bingöl",
        "District": "Karlıova"
    },
    {
        "Network": "TK",
        "Code": "1201",
        "Longitude": 40.5032,
        "Latitude": 38.8971,
        "Height": 1133.0,
        "Province": "Bingöl",
        "District": "Merkez"
    },
    {
        "Network": "TK",
        "Code": "1209",
        "Longitude": 41.0499,
        "Latitude": 38.966,
        "Height": 1383.0,
        "Province": "Bingöl",
        "District": "Solhan"
    },
    {
        "Network": "TK",
        "Code": "1303",
        "Longitude": 42.7631,
        "Latitude": 38.7998,
        "Height": 1678.0,
        "Province": "Bitlis",
        "District": "Adilcevaz"
    },
    {
        "Network": "TK",
        "Code": "1302",
        "Longitude": 42.1591,
        "Latitude": 38.4744,
        "Height": 1794.0,
        "Province": "Bitlis",
        "District": "Merkez"
    },
    {
        "Network": "TK",
        "Code": "1304",
        "Longitude": 42.281,
        "Latitude": 38.5031,
        "Height": 1676.0,
        "Province": "Bitlis",
        "District": "Tatvan"
    },
    {
        "Network": "TK",
        "Code": "1409",
        "Longitude": 32.0636,
        "Latitude": 40.717,
        "Height": 1169.0,
        "Province": "Bolu",
        "District": "Dörtdivan"
    },
    {
        "Network": "TK",
        "Code": "1402",
        "Longitude": 32.2059,
        "Latitude": 40.7925,
        "Height": 1305.0,
        "Province": "Bolu",
        "District": "Gerede"
    },
    {
        "Network": "TK",
        "Code": "1403",
        "Longitude": 30.7898,
        "Latitude": 40.3984,
        "Height": 825.0,
        "Province": "Bolu",
        "District": "Göynük"
    },
    {
        "Network": "TK",
        "Code": "1405",
        "Longitude": 32.076,
        "Latitude": 40.9381,
        "Height": 623.0,
        "Province": "Bolu",
        "District": "Mengen"
    },
    {
        "Network": "TK",
        "Code": "1401",
        "Longitude": 31.6073,
        "Latitude": 40.7457,
        "Height": 746.0,
        "Province": "Bolu",
        "District": "Merkez"
    },
    {
        "Network": "TK",
        "Code": "1408",
        "Longitude": 31.2099,
        "Latitude": 40.4684,
        "Height": 831.0,
        "Province": "Bolu",
        "District": "Mudurnu"
    },
    {
        "Network": "TK",
        "Code": "1407",
        "Longitude": 31.0112,
        "Latitude": 40.5776,
        "Height": 550.0,
        "Province": "Bolu",
        "District": "Mudurnu"
    },
    {
        "Network": "TK",
        "Code": "1410",
        "Longitude": 32.037,
        "Latitude": 40.7711,
        "Height": 1002.0,
        "Province": "Bolu",
        "District": "Yeniçağa"
    },
    {
        "Network": "TK",
        "Code": "1504",
        "Longitude": 30.5876,
        "Latitude": 37.4582,
        "Height": 803.0,
        "Province": "Burdur",
        "District": "Bucak"
    },
    {
        "Network": "TK",
        "Code": "1506",
        "Longitude": 29.5086,
        "Latitude": 37.1472,
        "Height": 1000.0,
        "Province": "Burdur",
        "District": "Gölhisar"
    },
    {
        "Network": "TK",
        "Code": "1502",
        "Longitude": 30.2209,
        "Latitude": 37.7032,
        "Height": 874.0,
        "Province": "Burdur",
        "District": "Merkez"
    },
    {
        "Network": "TK",
        "Code": "1505",
        "Longitude": 29.779,
        "Latitude": 37.3161,
        "Height": 1153.0,
        "Province": "Burdur",
        "District": "Tefenni"
    },
    {
        "Network": "TK",
        "Code": "1628",
        "Longitude": 29.0959,
        "Latitude": 40.2734,
        "Height": 143.0,
        "Province": "Bursa",
        "District": "Osmangazi"
    },
    {
        "Network": "TK",
        "Code": "1607",
        "Longitude": 29.098,
        "Latitude": 40.3944,
        "Height": 9.0,
        "Province": "Bursa",
        "District": "Gemlik"
    },
    {
        "Network": "TK",
        "Code": "1616",
        "Longitude": 29.2588,
        "Latitude": 40.4498,
        "Height": 148.0,
        "Province": "Bursa",
        "District": "Orhangazi"
    },
    {
        "Network": "TK",
        "Code": "1609",
        "Longitude": 29.1666,
        "Latitude": 40.4254,
        "Height": 2.0,
        "Province": "Bursa",
        "District": "Gemlik"
    },
    {
        "Network": "TK",
        "Code": "1630",
        "Longitude": 29.1221,
        "Latitude": 40.363,
        "Height": 74.0,
        "Province": "Bursa",
        "District": "Gemlik"
    },
    {
        "Network": "TK",
        "Code": "1610",
        "Longitude": 29.5088,
        "Latitude": 40.0671,
        "Height": 304.0,
        "Province": "Bursa",
        "District": "İnegöl"
    },
    {
        "Network": "TK",
        "Code": "1611",
        "Longitude": 29.7168,
        "Latitude": 40.4292,
        "Height": 95.0,
        "Province": "Bursa",
        "District": "İznik"
    },
    {
        "Network": "TK",
        "Code": "1613",
        "Longitude": 29.2317,
        "Latitude": 39.9151,
        "Height": 1060.0,
        "Province": "Bursa",
        "District": "Keles"
    },
    {
        "Network": "TK",
        "Code": "1627",
        "Longitude": 29.0752,
        "Latitude": 40.2257,
        "Height": 91.0,
        "Province": "Bursa",
        "District": "Osmangazi"
    },
    {
        "Network": "TK",
        "Code": "1618",
        "Longitude": 28.9282,
        "Latitude": 40.351,
        "Height": 34.0,
        "Province": "Bursa",
        "District": "Mudanya"
    },
    {
        "Network": "TK",
        "Code": "1614",
        "Longitude": 28.3939,
        "Latitude": 40.0347,
        "Height": 41.0,
        "Province": "Bursa",
        "District": "Mustafakemalpaşa"
    },
    {
        "Network": "TK",
        "Code": "1621",
        "Longitude": 28.9756,
        "Latitude": 40.2269,
        "Height": 119.0,
        "Province": "Bursa",
        "District": "Nilüfer"
    },
    {
        "Network": "TK",
        "Code": "1631",
        "Longitude": 29.3081,
        "Latitude": 40.4865,
        "Height": 120.0,
        "Province": "Bursa",
        "District": "Orhangazi"
    },
    {
        "Network": "TK",
        "Code": "1619",
        "Longitude": 29.2907,
        "Latitude": 40.4224,
        "Height": 132.0,
        "Province": "Bursa",
        "District": "Orhangazi"
    },
    {
        "Network": "TK",
        "Code": "1622",
        "Longitude": 29.0527,
        "Latitude": 40.196,
        "Height": 156.0,
        "Province": "Bursa",
        "District": "Osmangazi"
    },
    {
        "Network": "TK",
        "Code": "1623",
        "Longitude": 29.0334,
        "Latitude": 40.2654,
        "Height": 78.0,
        "Province": "Bursa",
        "District": "Osmangazi"
    },
    {
        "Network": "TK",
        "Code": "1624",
        "Longitude": 29.0567,
        "Latitude": 40.177,
        "Height": 366.0,
        "Province": "Bursa",
        "District": "Osmangazi"
    },
    {
        "Network": "TK",
        "Code": "1625",
        "Longitude": 29.0991,
        "Latitude": 40.263,
        "Height": 106.0,
        "Province": "Bursa",
        "District": "Osmangazi"
    },
    {
        "Network": "TK",
        "Code": "1626",
        "Longitude": 28.9824,
        "Latitude": 40.2403,
        "Height": 162.0,
        "Province": "Bursa",
        "District": "Osmangazi"
    },
    {
        "Network": "TK",
        "Code": "1632",
        "Longitude": 29.1793,
        "Latitude": 40.4105,
        "Height": 194.0,
        "Province": "Bursa",
        "District": "Gemlik"
    },
    {
        "Network": "TK",
        "Code": "1620",
        "Longitude": 29.1296,
        "Latitude": 40.1824,
        "Height": 193.0,
        "Province": "Bursa",
        "District": "Yıldırım"
    },
    {
        "Network": "TK",
        "Code": "1703",
        "Longitude": 27.2629,
        "Latitude": 40.2318,
        "Height": 24.0,
        "Province": "Çanakkale",
        "District": "Biga"
    },
    {
        "Network": "TK",
        "Code": "1708",
        "Longitude": 26.0528,
        "Latitude": 39.8419,
        "Height": 195.0,
        "Province": "Çanakkale",
        "District": "Bozcaada"
    },
    {
        "Network": "TK",
        "Code": "1704",
        "Longitude": 26.3456,
        "Latitude": 39.7739,
        "Height": 68.0,
        "Province": "Çanakkale",
        "District": "Ezine"
    },
    {
        "Network": "TK",
        "Code": "1710",
        "Longitude": 26.6672,
        "Latitude": 40.4233,
        "Height": 40.0,
        "Province": "Çanakkale",
        "District": "Gelibolu"
    },
    {
        "Network": "TK",
        "Code": "1711",
        "Longitude": 25.9078,
        "Latitude": 40.1908,
        "Height": 78.0,
        "Province": "Çanakkale",
        "District": "Gökçeada"
    },
    {
        "Network": "TK",
        "Code": "1712",
        "Longitude": 27.3035,
        "Latitude": 40.404,
        "Height": 6.0,
        "Province": "Çanakkale",
        "District": "Biga"
    },
    {
        "Network": "TK",
        "Code": "1701",
        "Longitude": 26.3995,
        "Latitude": 40.1415,
        "Height": 1.0,
        "Province": "Çanakkale",
        "District": "Merkez"
    },
    {
        "Network": "TK",
        "Code": "1713",
        "Longitude": 26.4117,
        "Latitude": 40.1622,
        "Height": 53.0,
        "Province": "Çanakkale",
        "District": "Merkez"
    },